{"roll": 45.0, "pitch": 45.0, "heading": 45.0, "pressure_altitude": 50, "temp": 20, "delta": 1.00, "iso8601": "2017-08-05T23:16:52.11Z", "agl": 0.00, "acceleration": 2, "latitude": 35.487229, "longitude": -85.958160, "speed": 55, "gps_altitude": 1050, "phase": 0, "apogee_cause": 2, "main_alt": 100.00}
{"roll": 45.0, "pitch": 45.0, "heading": 45.0, "pressure_altitude": 50, "temp": 20, "delta": 2.00, "iso8601": "2017-08-05T23:16:53.11Z", "agl": 0.00, "acceleration": 2, "latitude": 35.487229, "longitude": -85.958160, "speed": 55, "gps_altitude": 1050, "phase": 0, "apogee_cause": 2, "main_alt": 100.00}
{"roll": 45.0, "pitch": 45.0, "heading": 45.0, "pressure_altitude": 50, "temp": 20, "delta": 3.00, "iso8601": "2017-08-05T23:16:54.11Z", "agl": 0.00, "acceleration": 2, "latitude": 35.487229, "longitude": -85.958160, "speed": 55, "gps_altitude": 1050, "phase": 0, "apogee_cause": 2, "main_alt": 100.00}
{"roll": 45.0, "pitch": 45.0, "heading": 45.0, "pressure_altitude": 50, "temp": 20, "delta": 4.00, "iso8601": "2017-08-05T23:16:55.11Z", "agl": 0.00, "acceleration": 2, "latitude": 35.487229, "longitude": -85.958160, "speed": 55, "gps_altitude": 1050, "phase": 1, "apogee_cause": 2, "main_alt": 100.00}
{"roll": 45.0, "pitch": 45.0, "heading": 45.0, "pressure_altitude": 50, "temp": 20, "delta": 5.00, "iso8601": "2017-08-05T23:16:56.11Z", "agl": 0.00, "acceleration": 2, "latitude": 35.487229, "longitude": -85.958160, "speed": 55, "gps_altitude": 10, "phase": 1, "apogee_cause": 2, "main_alt": 100.00}
{"roll": 45.0, "pitch": 45.0, "heading": 45.0, "pressure_altitude": 50, "temp": 20, "delta": 6.00, "iso8601": "2017-08-05T23:16:57.11Z", "agl": 0.00, "acceleration": 2, "latitude": 35.487229, "longitude": -85.958160, "speed": 55, "gps_altitude": 20, "phase": 1, "apogee_cause": 2, "main_alt": 100.00}
{"roll": 45.0, "pitch": 45.0, "heading": 45.0, "pressure_altitude": 50, "temp": 20, "delta": 7.00, "iso8601": "2017-08-05T23:16:58.11Z", "agl": 0.00, "acceleration": 2, "latitude": 35.487229, "longitude": -85.958160, "speed": 55, "gps_altitude": 30, "phase": 2, "apogee_cause": 2, "main_alt": 100.00}
{"roll": 45.0, "pitch": 45.0, "heading": 45.0, "pressure_altitude": 50, "temp": 20, "delta": 8.00, "iso8601": "2017-08-05T23:16:59.11Z", "agl": 0.00, "acceleration": 2, "latitude": 35.487229, "longitude": -85.958160, "speed": 55, "gps_altitude": 40, "phase": 2, "apogee_cause": 2, "main_alt": 100.00}
{"roll": 45.0, "pitch": 45.0, "heading": 45.0, "pressure_altitude": 50, "temp": 20, "delta": 9.00, "iso8601": "2017-08-05T23:17:00.11Z", "agl": 0.00, "acceleration": 2, "latitude": 35.487229, "longitude": -85.958160, "speed": 55, "gps_altitude": 50, "phase": 2, "apogee_cause": 2, "main_alt": 100.00}
{"roll": 45.0, "pitch": 45.0, "heading": 45.0, "pressure_altitude": 50, "temp": 20, "delta": 10.00, "iso8601": "2017-08-05T23:17:01.11Z", "agl": 60.00, "acceleration": 2, "latitude": 35.487229, "longitude": -85.958160, "speed": 55, "gps_altitude": 60, "phase": 2, "apogee_cause": 2, "main_alt": 100.00}
{"roll": 45.0, "pitch": 45.0, "heading": 45.0, "pressure_altitude": 50, "temp": 20, "delta": 11.00, "iso8601": "2017-08-05T23:17:02.11Z", "agl": 100.00, "acceleration": 2, "latitude": 35.487229, "longitude": -85.958160, "speed": 55, "gps_altitude": 70, "phase": 3, "apogee_cause": 2, "main_alt": 100.00}
{"roll": 45.0, "pitch": 45.0, "heading": 45.0, "pressure_altitude": 50, "temp": 20, "delta": 12.00, "iso8601": "2017-08-05T23:17:03.11Z", "agl": 170.00, "acceleration": 2, "latitude": 35.487229, "longitude": -85.958160, "speed": 55, "gps_altitude": 80, "phase": 3, "apogee_cause": 2, "main_alt": 100.00}
{"roll": 45.0, "pitch": 45.0, "heading": 45.0, "pressure_altitude": 50, "temp": 20, "delta": 13.00, "iso8601": "2017-08-05T23:17:04.11Z", "agl": 170.00, "acceleration": 2, "latitude": 35.487229, "longitude": -85.958160, "speed": 55, "gps_altitude": 1050, "phase": 3, "apogee_cause": 2, "main_alt": 100.00}
{"roll": 45.0, "pitch": 45.0, "heading": 45.0, "pressure_altitude": 50, "temp": 20, "delta": 14.00, "iso8601": "2017-08-05T23:17:05.11Z", "agl": 170.00, "acceleration": 2, "latitude": 35.487229, "longitude": -85.958160, "speed": 55, "gps_altitude": 1050, "phase": 3, "apogee_cause": 2, "main_alt": 100.00}
{"roll": 45.0, "pitch": 45.0, "heading": 45.0, "pressure_altitude": 50, "temp": 20, "delta": 15.00, "iso8601": "2017-08-05T23:17:06.11Z", "agl": 170.00, "acceleration": 2, "latitude": 35.487229, "longitude": -85.958160, "speed": 55, "gps_altitude": 1050, "phase": 3, "apogee_cause": 2, "main_alt": 100.00}
{"roll": 45.0, "pitch": 45.0, "heading": 45.0, "pressure_altitude": 50, "temp": 20, "delta": 16.00, "iso8601": "2017-08-05T23:17:07.11Z", "agl": 170.00, "acceleration": 2, "latitude": 35.487229, "longitude": -85.958160, "speed": 55, "gps_altitude": 1050, "phase": 3, "apogee_cause": 2, "main_alt": 100.00}
{"roll": 45.0, "pitch": 45.0, "heading": 45.0, "pressure_altitude": 50, "temp": 20, "delta": 17.00, "iso8601": "2017-08-05T23:17:08.11Z", "agl": 300.00, "acceleration": 2, "latitude": 35.487229, "longitude": -85.958160, "speed": 55, "gps_altitude": 1050, "phase": 3, "apogee_cause": 2, "main_alt": 100.00}
{"roll": 45.0, "pitch": 45.0, "heading": 45.0, "pressure_altitude": 50, "temp": 20, "delta": 18.00, "iso8601": "2017-08-05T23:17:09.11Z", "agl": 300.00, "acceleration": 2, "latitude": 35.487229, "longitude": -85.958160, "speed": 55, "gps_altitude": 1050, "phase": 3, "apogee_cause": 2, "main_alt": 100.00}
{"roll": 45.0, "pitch": 45.0, "heading": 45.0, "pressure_altitude": 50, "temp": 20, "delta": 19.00, "iso8601": "2017-08-05T23:17:10.11Z", "agl": 300.00, "acceleration": 2, "latitude": 35.487229, "longitude": -85.958160, "speed": 55, "gps_altitude": 1050, "phase": 3, "apogee_cause": 2, "main_alt": 100.00}
{"roll": 45.0, "pitch": 45.0, "heading": 45.0, "pressure_altitude": 50, "temp": 20, "delta": 20.00, "iso8601": "2017-08-05T23:17:11.11Z", "agl": 300.00, "acceleration": 2, "latitude": 35.487229, "longitude": -85.958160, "speed": 55, "gps_altitude": 1050, "phase": 3, "apogee_cause": 2, "main_alt": 100.00}
{"roll": 45.0, "pitch": 45.0, "heading": 45.0, "pressure_altitude": 50, "temp": 20, "delta": 21.00, "iso8601": "2017-08-05T23:17:12.11Z", "agl": 600.00, "acceleration": 2, "latitude": 35.487229, "longitude": -85.958160, "speed": 55, "gps_altitude": 1050, "phase": 3, "apogee_cause": 2, "main_alt": 100.00}
{"roll": 45.0, "pitch": 45.0, "heading": 45.0, "pressure_altitude": 50, "temp": 20, "delta": 22.00, "iso8601": "2017-08-05T23:17:13.11Z", "agl": 600.00, "acceleration": 2, "latitude": 35.487229, "longitude": -85.958160, "speed": 55, "gps_altitude": 1050, "phase": 3, "apogee_cause": 2, "main_alt": 100.00}
{"roll": 45.0, "pitch": 45.0, "heading": 45.0, "pressure_altitude": 50, "temp": 20, "delta": 23.00, "iso8601": "2017-08-05T23:17:14.11Z", "agl": 600.00, "acceleration": 2, "latitude": 35.487229, "longitude": -85.958160, "speed": 55, "gps_altitude": 1050, "phase": 3, "apogee_cause": 2, "main_alt": 100.00}
{"roll": 45.0, "pitch": 45.0, "heading": 45.0, "pressure_altitude": 50, "temp": 20, "delta": 24.00, "iso8601": "2017-08-05T23:17:15.11Z", "agl": 600.00, "acceleration": 2, "latitude": 35.487229, "longitude": -85.958160, "speed": 55, "gps_altitude": 1050, "phase": 3, "apogee_cause": 2, "main_alt": 100.00}
{"roll": 45.0, "pitch": 45.0, "heading": 45.0, "pressure_altitude": 50, "temp": 20, "delta": 25.00, "iso8601": "2017-08-05T23:17:16.11Z", "agl": 600.00, "acceleration": 2, "latitude": 35.487229, "longitude": -85.958160, "speed": 55, "gps_altitude": 1050, "phase": 3, "apogee_cause": 2, "main_alt": 100.00}
{"roll": 45.0, "pitch": 45.0, "heading": 45.0, "pressure_altitude": 50, "temp": 20, "delta": 26.00, "iso8601": "2017-08-05T23:17:17.11Z", "agl": 600.00, "acceleration": 2, "latitude": 35.487229, "longitude": -85.958160, "speed": 55, "gps_altitude": 1050, "phase": 3, "apogee_cause": 2, "main_alt": 100.00}
{"roll": 45.0, "pitch": 45.0, "heading": 45.0, "pressure_altitude": 50, "temp": 20, "delta": 27.00, "iso8601": "2017-08-05T23:17:18.11Z", "agl": 1200.00, "acceleration": 2, "latitude": 35.487229, "longitude": -85.958160, "speed": 55, "gps_altitude": 1050, "phase": 3, "apogee_cause": 2, "main_alt": 100.00}
{"roll": 45.0, "pitch": 45.0, "heading": 45.0, "pressure_altitude": 50, "temp": 20, "delta": 28.00, "iso8601": "2017-08-05T23:17:19.11Z", "agl": 1200.00, "acceleration": 2, "latitude": 35.487229, "longitude": -85.958160, "speed": 55, "gps_altitude": 1050, "phase": 3, "apogee_cause": 2, "main_alt": 100.00}
{"roll": 45.0, "pitch": 45.0, "heading": 45.0, "pressure_altitude": 50, "temp": 20, "delta": 29.00, "iso8601": "2017-08-05T23:17:20.11Z", "agl": 1200.00, "acceleration": 2, "latitude": 35.487229, "longitude": -85.958160, "speed": 55, "gps_altitude": 1050, "phase": 3, "apogee_cause": 2, "main_alt": 100.00}
{"roll": 45.0, "pitch": 45.0, "heading": 45.0, "pressure_altitude": 50, "temp": 20, "delta": 30.00, "iso8601": "2017-08-05T23:17:21.11Z", "agl": 1200.00, "acceleration": 2, "latitude": 35.487229, "longitude": -85.958160, "speed": 55, "gps_altitude": 1050, "phase": 3, "apogee_cause": 2, "main_alt": 100.00}
{"roll": 45.0, "pitch": 45.0, "heading": 45.0, "pressure_altitude": 50, "temp": 20, "delta": 31.00, "iso8601": "2017-08-05T23:17:22.11Z", "agl": 1200.00, "acceleration": 2, "latitude": 35.487229, "longitude": -85.958160, "speed": 55, "gps_altitude": 1050, "phase": 4, "apogee_cause": 2, "main_alt": 100.00}
{"roll": 45.0, "pitch": 45.0, "heading": 45.0, "pressure_altitude": 50, "temp": 20, "delta": 32.00, "iso8601": "2017-08-05T23:17:23.11Z", "agl": 600.00, "acceleration": 2, "latitude": 35.487229, "longitude": -85.958160, "speed": 55, "gps_altitude": 1050, "phase": 4, "apogee_cause": 2, "main_alt": 100.00}
{"roll": 45.0, "pitch": 45.0, "heading": 45.0, "pressure_altitude": 50, "temp": 20, "delta": 33.00, "iso8601": "2017-08-05T23:17:24.11Z", "agl": 600.00, "acceleration": 2, "latitude": 35.487229, "longitude": -85.958160, "speed": 55, "gps_altitude": 1050, "phase": 4, "apogee_cause": 2, "main_alt": 100.00}
{"roll": 45.0, "pitch": 45.0, "heading": 45.0, "pressure_altitude": 50, "temp": 20, "delta": 34.00, "iso8601": "2017-08-05T23:17:25.11Z", "agl": 600.00, "acceleration": 2, "latitude": 35.487229, "longitude": -85.958160, "speed": 55, "gps_altitude": 1050, "phase": 4, "apogee_cause": 2, "main_alt": 100.00}
{"roll": 45.0, "pitch": 45.0, "heading": 45.0, "pressure_altitude": 50, "temp": 20, "delta": 35.00, "iso8601": "2017-08-05T23:17:26.11Z", "agl": 600.00, "acceleration": 2, "latitude": 35.487229, "longitude": -85.958160, "speed": 55, "gps_altitude": 1050, "phase": 5, "apogee_cause": 2, "main_alt": 100.00}
{"roll": 45.0, "pitch": 45.0, "heading": 45.0, "pressure_altitude": 50, "temp": 20, "delta": 36.00, "iso8601": "2017-08-05T23:17:27.11Z", "agl": 50.00, "acceleration": 2, "latitude": 35.487229, "longitude": -85.958160, "speed": 55, "gps_altitude": 1050, "phase": 5, "apogee_cause": 2, "main_alt": 100.00}
{"roll": 45.0, "pitch": 45.0, "heading": 45.0, "pressure_altitude": 50, "temp": 20, "delta": 37.00, "iso8601": "2017-08-05T23:17:28.11Z", "agl": 1.00, "acceleration": 2, "latitude": 35.487229, "longitude": -85.958160, "speed": 55, "gps_altitude": 1050, "phase": 5, "apogee_cause": 2, "main_alt": 100.00}
{"roll": 45.0, "pitch": 45.0, "heading": 45.0, "pressure_altitude": 50, "temp": 20, "delta": 38.00, "iso8601": "2017-08-05T23:17:29.11Z", "agl": 1.00, "acceleration": 2, "latitude": 35.487229, "longitude": -85.958160, "speed": 55, "gps_altitude": 1050, "phase": 5, "apogee_cause": 2, "main_alt": 100.00}