millis,Heading / Euler X (degrees Magnetic) [raw],Roll / Euler Y [raw],Pitch / Euler Z [raw],Linear Accel (X) [raw],Linear Accel (Y) [raw],Linear Accel (Z) [raw],Gravity Accel (X) [raw],Gravity Accel (Y) [raw],Gravity Accel (Z) [raw],Heading / Euler X,Roll / Euler Y,Pitch / Euler Z,Linear Accel (X),Linear Accel (Y),Linear Accel (Z),Gravity Accel (X),Gravity Accel (Y),Gravity Accel (Z),# Satellites Tracking,HDOP (Horizontal Dilution of Precision),Latitude,Longitude,Fix Age,Date (UTC),Time (UTC),Date Age,Altitude (meters) [raw],Altitude (meters),Vehicle Heading (degrees True),Vehicle Speed (knots) [raw],Vehicle Speed (knots),Characters Received,Sentences Received,# Checksum Failures,Ambient Temperature (*Celcius),Ambient Pressure (Pascal) [raw],Relative Humidity (%),Altitude (meters) [raw]
518268,86.75,-0.88,1.12,0.01,-0.12,-0.06,-0.15,-0.19,9.8,86.75,-0.88,1.12,0,-0.12,-0.06,-0.15,-0.19,9.8,3,263,38.218761,-85.752953,5,7/25/2017,3:45:34,965,183.2,146.85,****** ,***** ,0,88364,1,8,27.6,100143.78,44.32,98.81
518285,86.75,-0.88,1.12,0,-0.09,-0.01,-0.15,-0.19,9.8,86.75,-0.88,1.12,0,-0.11,-0.05,-0.15,-0.19,9.8,3,263,38.218761,-85.752953,20,7/25/2017,3:45:34,980,183.2,163.46,****** ,***** ,0,88380,1,8,27.6,100138.31,44.33,99.27
518304,86.75,-0.88,1.12,0,-0.1,-0.01,-0.15,-0.19,9.8,86.75,-0.88,1.12,0,-0.11,-0.04,-0.15,-0.19,9.8,3,263,38.218761,-85.752953,43,7/25/2017,3:45:34,1003,183.2,170.01,****** ,***** ,0,88400,1,8,27.6,100138.31,44.33,99.27
518323,86.75,-0.88,1.12,-0.01,-0.11,-0.1,-0.15,-0.19,9.8,86.75,-0.88,1.12,0,-0.11,-0.05,-0.15,-0.19,9.8,3,263,38.218761,-85.752953,59,7/25/2017,3:45:34,1019,183.2,173.59,****** ,***** ,0,88416,1,8,27.6,100138.31,44.33,99.27
518344,86.75,-0.88,1.12,0,-0.1,0,-0.15,-0.19,9.8,86.75,-0.88,1.12,0,-0.11,-0.04,-0.15,-0.19,9.8,3,263,38.218761,-85.752953,82,7/25/2017,3:45:34,1042,183.2,175.87,****** ,***** ,0,88436,1,8,27.6,100138.31,44.33,99.27
518362,86.75,-0.88,1.12,0,-0.1,-0.13,-0.15,-0.19,9.8,86.75,-0.88,1.12,0,-0.11,-0.06,-0.15,-0.19,9.8,3,263,38.218761,-85.752953,97,7/25/2017,3:45:34,1058,183.2,177.46,****** ,***** ,0,88456,1,8,27.61,100141.45,44.28,99.01
518382,86.75,-0.88,1.12,-0.02,-0.11,-0.03,-0.15,-0.19,9.8,86.75,-0.88,1.12,0,-0.11,-0.05,-0.15,-0.19,9.8,3,263,38.218761,-85.752953,3,7/25/2017,3:45:34,3,183.2,178.64,102.72,0.22,0.18,88472,2,8,27.61,100141.45,44.28,99.01
518395,86.75,-0.88,1.12,0,-0.12,-0.02,-0.15,-0.19,9.8,86.75,-0.88,1.12,0,-0.11,-0.05,-0.15,-0.19,9.8,3,263,38.218761,-85.752953,19,7/25/2017,3:45:34,19,183.2,179.53,102.72,0.22,0.2,88484,2,8,27.61,100141.45,44.28,99.01
518413,86.75,-0.88,1.12,-0.01,-0.1,-0.13,-0.15,-0.19,9.8,86.75,-0.88,1.12,0,-0.11,-0.06,-0.15,-0.19,9.8,3,263,38.218761,-85.752953,36,7/25/2017,3:45:34,36,183.2,180.23,102.72,0.22,0.2,88504,2,8,27.61,100141.45,44.28,99.01
519185,86.75,-0.88,1.12,0,-0.13,-0.03,-0.15,-0.19,9.8,86.75,-0.88,1.12,0,-0.12,-0.05,-0.15,-0.19,9.8,3,263,38.218761,-85.752953,806,7/25/2017,3:45:34,807,183.2,183.2,102.72,0.22,0.22,88526,2,8,27.6,100143.95,44.3,98.8
520095,86.75,-0.88,1.12,0,-0.11,-0.03,-0.15,-0.19,9.8,86.75,-0.88,1.12,0,-0.12,-0.06,-0.15,-0.19,9.8,3,263,38.218761,-85.75296,712,7/25/2017,3:45:35,712,183.2,183.2,106.09,0.2,0.2,88744,4,8,27.6,100143.37,44.28,98.85
521045,86.75,-0.88,1.12,-0.02,-0.12,-0.01,-0.15,-0.19,9.8,86.75,-0.88,1.12,0,-0.12,-0.05,-0.15,-0.19,9.8,3,263,38.218777,-85.752998,266,7/25/2017,3:45:36,266,183.2,183.2,140.13,0.09,0.09,89306,8,8,27.61,100145.95,44.25,98.63
522009,86.75,-0.88,1.12,-0.04,-0.12,-0.15,-0.15,-0.19,9.8,86.75,-0.88,1.12,-0.01,-0.11,-0.07,-0.15,-0.19,9.8,3,263,38.218777,-85.752998,1229,7/25/2017,3:45:36,1229,183.2,183.2,140.13,0.09,0.09,89306,8,8,27.61,100145.41,44.3,98.68
522811,86.75,-0.88,1.12,0,-0.09,-0.14,-0.15,-0.19,9.8,86.75,-0.88,1.12,0,-0.11,-0.07,-0.15,-0.19,9.8,3,263,38.218784,-85.753014,388,7/25/2017,3:45:38,388,183.2,183.2,94.96,0.07,0.07,89538,10,8,27.62,100144.41,44.29,98.76
523700,86.75,-0.88,1.12,0,-0.09,-0.05,-0.15,-0.19,9.8,86.75,-0.88,1.12,0,-0.11,-0.08,-0.15,-0.19,9.8,3,263,38.2188,-85.753044,313,7/25/2017,3:45:39,313,183.2,183.2,324.7,0.09,0.09,89772,12,8,27.61,100144.04,44.29,98.79
524674,86.75,-0.88,1.12,0,-0.11,-0.05,-0.15,-0.19,9.8,86.75,-0.88,1.12,0,-0.11,-0.07,-0.15,-0.19,9.8,3,263,38.218815,-85.753082,300,7/25/2017,3:45:40,300,183.2,183.2,295.16,0.22,0.21,90006,14,8,27.61,100139.53,44.25,99.17
525649,86.75,-0.88,1.12,-0.01,-0.12,0,-0.15,-0.19,9.8,86.75,-0.88,1.12,0,-0.11,-0.05,-0.15,-0.19,9.8,3,264,38.218822,-85.753105,163,7/25/2017,3:45:41,163,183.2,183.2,289.84,0.31,0.3,90334,16,8,27.61,100139.53,44.27,99.17
526571,86.75,-0.88,1.12,0,-0.11,-0.1,-0.15,-0.19,9.8,86.75,-0.88,1.12,0,-0.11,-0.06,-0.15,-0.19,9.8,3,264,38.218849,-85.753151,6,7/25/2017,3:45:42,126,183.2,183.2,302.4,0.36,0.35,90646,19,8,27.61,100146.77,44.27,98.56
527476,86.75,-0.88,1.12,0,-0.11,-0.04,-0.15,-0.19,9.8,86.75,-0.88,1.12,0,-0.12,-0.06,-0.15,-0.19,9.8,3,264,38.218849,-85.753151,785,7/25/2017,3:45:42,786,183.2,183.2,312.16,0.43,0.43,90802,20,8,27.62,100141.68,44.27,98.99
528320,86.75,-0.88,1.12,-0.02,-0.11,-0.09,-0.15,-0.19,9.8,86.75,-0.88,1.12,0,-0.11,-0.07,-0.15,-0.19,9.8,3,264,38.218853,-85.753174,47,7/25/2017,3:45:44,1632,183.1,183.15,312.16,0.43,0.43,90930,21,8,27.61,100141.3,44.27,99.02
529293,86.75,-0.88,1.12,-0.01,-0.13,-0.02,-0.15,-0.19,9.8,86.75,-0.88,1.12,0,-0.11,-0.04,-0.15,-0.19,9.8,3,264,38.218861,-85.753189,46,7/25/2017,3:45:45,897,183.1,183.1,327.5,0.26,0.26,91148,23,8,27.61,100147.73,44.27,98.48
530170,86.75,-0.88,1.12,0,-0.12,-0.08,-0.15,-0.19,9.8,86.75,-0.88,1.12,0,-0.12,-0.07,-0.15,-0.19,9.8,3,264,38.218861,-85.753189,786,7/25/2017,3:45:45,786,183.1,183.1,322.23,0.22,0.22,91270,24,8,27.61,100142.67,44.25,98.91
531131,86.75,-0.88,1.12,0,-0.11,-0.04,-0.15,-0.19,9.8,86.75,-0.88,1.12,0,-0.1,-0.06,-0.15,-0.19,9.8,3,264,38.218864,-85.753212,639,7/25/2017,3:45:46,639,183.1,183.1,299.79,0.19,0.19,91609,26,8,27.61,100140.9,44.3,99.05
532081,86.75,-0.88,1.12,-0.02,-0.11,-0.04,-0.15,-0.19,9.8,86.75,-0.88,1.12,-0.01,-0.11,-0.06,-0.15,-0.19,9.8,3,264,38.218864,-85.75322,681,7/25/2017,3:45:47,681,183.1,183.1,280.76,0.25,0.25,91843,28,8,27.61,100139.53,44.26,99.17
533064,86.75,-0.88,1.12,-0.01,-0.11,-0.1,-0.15,-0.19,9.8,86.75,-0.88,1.12,0,-0.11,-0.07,-0.15,-0.19,9.8,3,264,38.218872,-85.75325,427,7/25/2017,3:45:48,427,183.1,183.1,290.2,0.32,0.32,92311,32,8,27.61,100140.49,44.27,99.09
533939,86.75,-0.88,1.12,0,-0.1,-0.08,-0.15,-0.19,9.8,86.75,-0.88,1.12,0,-0.11,-0.08,-0.15,-0.19,9.8,3,264,38.218872,-85.75325,1303,7/25/2017,3:45:48,1303,183.1,183.1,290.2,0.32,0.32,92311,32,8,27.61,100142.81,44.25,98.89
534767,86.75,-0.88,1.12,-0.01,-0.12,-0.1,-0.15,-0.19,9.8,86.75,-0.88,1.12,0,-0.12,-0.07,-0.15,-0.19,9.8,3,264,38.218872,-85.753258,386,7/25/2017,3:45:50,386,183.1,183.1,280.61,0.24,0.24,92545,34,8,27.61,100143.22,44.27,98.86
535637,86.75,-0.88,1.12,0,-0.11,-0.04,-0.15,-0.19,9.8,86.75,-0.88,1.12,0,-0.11,-0.06,-0.15,-0.19,9.8,3,265,38.218872,-85.753265,147,7/25/2017,3:45:51,147,183.1,183.1,282.36,0.27,0.27,92884,36,8,27.61,100140.08,44.25,99.12
536583,86.75,-0.88,1.12,0,-0.1,-0.02,-0.15,-0.19,9.8,86.75,-0.88,1.12,0,-0.12,-0.06,-0.15,-0.19,9.8,3,264,38.218872,-85.753273,204,7/25/2017,3:45:52,204,183.1,183.1,259.9,0.19,0.2,93118,38,8,27.61,100140.08,44.28,99.12
537564,86.75,-0.88,1.12,0,-0.11,-0.07,-0.15,-0.19,9.8,86.75,-0.88,1.12,0,-0.11,-0.05,-0.15,-0.19,9.8,3,265,38.218868,-85.753281,177,7/25/2017,3:45:53,177,183.1,183.1,230.4,0.21,0.21,93352,40,8,27.61,100142.67,44.26,98.91
538438,86.75,-0.88,1.12,0,-0.13,0,-0.15,-0.19,9.8,86.75,-0.88,1.12,0,-0.12,-0.04,-0.15,-0.19,9.8,3,264,38.218868,-85.753281,48,7/25/2017,3:45:54,48,183.1,183.1,213.63,0.16,0.18,93600,42,8,27.62,100138.95,44.26,99.22
539304,86.75,-0.88,1.12,0,-0.11,-0.11,-0.15,-0.19,9.8,86.75,-0.88,1.12,0,-0.11,-0.07,-0.15,-0.19,9.8,3,264,38.218868,-85.753288,677,7/25/2017,3:45:54,677,183.1,183.1,212.72,0.16,0.16,93820,44,8,27.62,100145.78,44.24,98.64
540280,86.75,-0.88,1.12,0,-0.11,-0.01,-0.15,-0.19,9.8,86.75,-0.88,1.12,0,-0.12,-0.04,-0.15,-0.19,9.8,3,265,38.218864,-85.753288,24,7/25/2017,3:45:56,1652,183.1,183.1,212.72,0.16,0.16,93916,45,8,27.62,100137.99,44.26,99.3
541242,86.75,-0.88,1.12,-0.01,-0.11,0,-0.15,-0.19,9.8,86.75,-0.88,1.12,0,-0.11,-0.05,-0.15,-0.19,9.8,3,265,38.218864,-85.753288,748,7/25/2017,3:45:56,748,183.1,183.1,240.62,0.16,0.16,94179,46,8,27.62,100138.4,44.24,99.26
542167,86.75,-0.88,1.12,-0.01,-0.09,-0.02,-0.15,-0.19,9.8,86.75,-0.88,1.12,0,-0.11,-0.05,-0.15,-0.19,9.8,3,264,38.218861,-85.753296,735,7/25/2017,3:45:57,735,183.1,183.1,227.49,0.2,0.2,94393,48,8,27.62,100141.12,44.28,99.04
543115,86.75,-0.88,1.12,0,-0.12,-0.02,-0.15,-0.19,9.8,86.75,-0.88,1.12,0,-0.11,-0.06,-0.15,-0.19,9.8,3,265,38.218864,-85.753304,738,7/25/2017,3:45:58,738,183.1,183.1,239.38,0.13,0.13,94627,50,8,27.62,100147,44.26,98.54
544053,86.75,-0.88,1.12,-0.02,-0.11,-0.05,-0.15,-0.19,9.8,86.75,-0.88,1.12,-0.01,-0.11,-0.06,-0.15,-0.19,9.8,3,265,38.218861,-85.753304,619,7/25/2017,3:45:59,619,183.1,183.1,226.26,0.19,0.19,94861,52,8,27.62,100144.27,44.25,98.77
544889,86.75,-0.88,1.12,0,-0.11,-0.03,-0.15,-0.19,9.8,86.75,-0.88,1.12,0,-0.11,-0.04,-0.15,-0.19,9.8,3,265,38.218845,-85.753304,147,7/25/2017,3:46:00,147,183.1,183.1,192.25,0.38,0.36,95434,56,8,27.63,100143.72,44.26,98.82
545861,86.75,-0.88,1.12,-0.01,-0.15,-0.11,-0.15,-0.19,9.8,86.75,-0.88,1.12,0,-0.13,-0.07,-0.15,-0.19,9.8,3,265,38.218845,-85.753304,1118,7/25/2017,3:46:00,1118,183.1,183.1,192.25,0.38,0.38,95434,56,8,27.63,100146.05,44.22,98.62
546831,86.75,-0.88,1.12,0,-0.12,-0.02,-0.15,-0.19,9.8,86.75,-0.88,1.12,0,-0.11,-0.06,-0.15,-0.19,9.8,3,265,38.218838,-85.753311,446,7/25/2017,3:46:02,447,183.1,183.1,187.72,0.42,0.42,95668,58,8,27.62,100141.53,44.22,99
547755,86.75,-0.88,1.12,-0.01,-0.12,-0.09,-0.15,-0.19,9.8,86.75,-0.88,1.12,0,-0.12,-0.05,-0.15,-0.19,9.8,3,265,38.21883,-85.753304,329,7/25/2017,3:46:03,329,183.1,183.1,168.96,0.5,0.5,95902,60,8,27.63,100141.94,44.24,98.97
548671,86.75,-0.88,1.12,0,-0.11,0,-0.15,-0.19,9.8,86.75,-0.88,1.12,0,-0.11,-0.05,-0.15,-0.19,9.8,3,265,38.218826,-85.753304,294,7/25/2017,3:46:04,294,183.1,183.1,150.45,0.56,0.56,96136,62,8,27.63,100146.05,44.24,98.62
549562,86.75,-0.88,1.12,0,-0.12,-0.06,-0.15,-0.19,9.8,86.75,-0.88,1.12,0,-0.11,-0.07,-0.15,-0.19,9.8,3,265,38.218819,-85.753304,173,7/25/2017,3:46:05,173,183.1,183.1,151.09,0.58,0.58,96370,64,8,27.63,100139.03,44.24,99.21
550473,86.75,-0.88,1.12,0,-0.11,-0.01,-0.15,-0.19,9.8,86.75,-0.88,1.12,0,-0.12,-0.06,-0.15,-0.19,9.8,3,265,38.218815,-85.753304,211,7/25/2017,3:46:06,1085,183.1,183.1,151.09,0.58,0.58,96654,65,8,27.63,100142.72,44.25,98.9
551419,86.75,-0.88,1.12,0,-0.1,-0.02,-0.15,-0.19,9.8,86.75,-0.88,1.12,0,-0.11,-0.05,-0.15,-0.19,9.8,3,265,38.218807,-85.753304,675,7/25/2017,3:46:06,675,183.1,183.1,153.31,0.71,0.71,96943,68,8,27.63,100143.13,44.24,98.87
552369,86.75,-0.88,1.12,0,-0.12,-0.01,-0.15,-0.19,9.8,86.75,-0.88,1.12,0,-0.12,-0.05,-0.15,-0.19,9.8,3,266,38.218807,-85.753304,112,7/25/2017,3:46:08,1624,183.1,183.1,153.31,0.71,0.71,97127,69,8,27.63,100144.5,44.18,98.75
553277,86.75,-0.88,1.12,-0.01,-0.12,-0.02,-0.15,-0.19,9.8,86.75,-0.88,1.12,0,-0.12,-0.06,-0.15,-0.19,9.8,3,266,38.218803,-85.753296,27,7/25/2017,3:46:09,894,183.1,183.1,147.77,0.67,0.67,97273,71,8,27.63,100144.09,44.24,98.79
554182,86.75,-0.88,1.12,0,-0.11,0,-0.15,-0.19,9.8,86.75,-0.88,1.12,0,-0.12,-0.04,-0.15,-0.19,9.8,3,266,38.218803,-85.753296,793,7/25/2017,3:46:09,793,183.1,183.1,141.72,0.73,0.73,97415,72,8,27.64,100147.64,44.23,98.49
555132,86.75,-0.88,1.12,-0.02,-0.12,-0.06,-0.15,-0.19,9.8,86.75,-0.88,1.12,0,-0.11,-0.06,-0.15,-0.19,9.8,3,265,38.218803,-85.753296,742,7/25/2017,3:46:10,742,183.1,183.1,139.98,0.67,0.67,97645,74,8,27.64,100149,44.21,98.37
556054,86.75,-0.88,1.12,-0.02,-0.11,-0.11,-0.15,-0.19,9.8,86.75,-0.88,1.12,0,-0.11,-0.07,-0.15,-0.19,9.8,3,266,38.218803,-85.753296,557,7/25/2017,3:46:11,557,183.1,183.1,141.93,0.68,0.68,97984,76,8,27.63,100147.23,44.2,98.52
556910,86.75,-0.88,1.12,-0.02,-0.12,-0.04,-0.15,-0.19,9.8,86.75,-0.88,1.12,0,-0.11,-0.06,-0.15,-0.19,9.8,3,266,38.218803,-85.753304,291,7/25/2017,3:46:12,291,183.1,183.1,141.45,0.5,0.5,98452,80,8,27.64,100143.54,44.23,98.83
557774,86.75,-0.88,1.12,-0.01,-0.11,-0.01,-0.15,-0.19,9.8,86.75,-0.88,1.12,-0.01,-0.11,-0.05,-0.15,-0.19,9.8,3,266,38.218803,-85.753304,1155,7/25/2017,3:46:12,1156,183.1,183.1,141.45,0.5,0.5,98452,80,8,27.64,100138.08,44.19,99.29
558710,86.75,-0.88,1.12,0,-0.11,-0.03,-0.15,-0.19,9.8,86.75,-0.88,1.12,0,-0.12,-0.05,-0.15,-0.19,9.8,3,266,38.218803,-85.753296,320,7/25/2017,3:46:14,320,183.1,183.1,130.56,0.61,0.61,98686,82,8,27.64,100143.95,44.21,98.8
559636,86.75,-0.88,1.12,0,-0.12,-0.15,-0.15,-0.19,9.8,86.75,-0.88,1.12,0,-0.12,-0.06,-0.15,-0.19,9.8,3,266,38.218796,-85.753288,257,7/25/2017,3:46:15,258,183.1,183.1,134.79,0.71,0.7,98920,84,8,27.64,100147.09,44.23,98.53
560559,86.75,-0.88,1.12,-0.01,-0.11,-0.05,-0.15,-0.19,9.8,86.75,-0.88,1.12,0,-0.11,-0.07,-0.15,-0.19,9.8,3,266,38.218796,-85.753288,60,7/25/2017,3:46:16,60,183.1,183.1,138.76,0.6,0.65,99259,86,8,27.64,100141.62,44.23,98.99
561528,86.75,-0.88,1.12,0,-0.1,-0.04,-0.15,-0.19,9.8,86.75,-0.88,1.12,0,-0.12,-0.07,-0.15,-0.19,9.8,3,266,38.218796,-85.753296,147,7/25/2017,3:46:17,147,183.1,183.1,151.1,0.45,0.48,99493,88,8,27.64,100146.68,44.24,98.57
562321,86.75,-0.88,1.12,0,-0.12,-0.02,-0.15,-0.19,9.8,86.75,-0.88,1.12,0,-0.12,-0.05,-0.15,-0.19,9.8,3,266,38.218796,-85.753296,4,7/25/2017,3:46:18,938,183.1,183.1,151.1,0.45,0.45,99581,89,8,27.64,100146.12,44.21,98.61
563187,86.75,-0.88,1.12,-0.02,-0.11,-0.15,-0.15,-0.19,9.8,86.75,-0.88,1.12,0,-0.11,-0.09,-0.15,-0.19,9.8,3,266,38.218796,-85.753296,502,7/25/2017,3:46:18,503,183.1,183.1,151.24,0.45,0.45,99961,92,8,27.65,100146.5,44.2,98.58
564128,86.75,-0.88,1.12,0,-0.08,-0.01,-0.15,-0.19,9.8,86.75,-0.88,1.12,0,-0.11,-0.06,-0.15,-0.19,9.8,3,266,38.218796,-85.753296,1442,7/25/2017,3:46:18,1443,183.1,183.1,151.24,0.45,0.45,99961,92,8,27.64,100148.86,44.23,98.39
565159,86.75,-0.88,1.12,-0.01,-0.13,-0.04,-0.15,-0.19,9.8,86.75,-0.88,1.12,0,-0.12,-0.08,-0.15,-0.19,9.8,3,267,38.218788,-85.753296,723,7/25/2017,3:46:20,723,183.1,183.1,153.04,0.42,0.42,100195,94,8,27.65,100141.04,44.19,99.04
566129,86.75,-0.88,1.12,0,-0.14,-0.13,-0.15,-0.19,9.8,86.75,-0.88,1.12,0,-0.11,-0.05,-0.15,-0.19,9.8,3,267,38.218788,-85.753296,644,7/25/2017,3:46:21,644,183.1,183.1,159.65,0.47,0.47,100534,96,8,27.65,100142.27,44.17,98.94
566925,86.75,-0.88,1.12,0,-0.13,-0.03,-0.15,-0.19,9.8,86.75,-0.88,1.12,0,-0.11,-0.06,-0.15,-0.19,9.8,3,267,38.218788,-85.753288,550,7/25/2017,3:46:22,550,183.1,183.1,154.68,0.39,0.39,100768,98,8,27.66,100142.67,44.18,98.91
567858,86.75,-0.88,1.12,0,-0.12,-0.06,-0.15,-0.19,9.8,86.75,-0.88,1.12,0,-0.12,-0.07,-0.15,-0.19,9.8,3,267,38.218784,-85.753288,486,7/25/2017,3:46:23,486,183.1,183.1,148.31,0.4,0.4,101002,100,8,27.66,100145.8,44.2,98.64
568685,86.75,-0.88,1.12,0,-0.14,-0.14,-0.15,-0.19,9.8,86.75,-0.88,1.12,0,-0.12,-0.07,-0.15,-0.19,9.8,3,267,38.218784,-85.753288,20,7/25/2017,3:46:24,21,183.1,183.1,140.56,0.34,0.35,101446,104,8,27.66,100146.77,44.24,98.56
569616,86.75,-0.88,1.12,0,-0.11,-0.05,-0.15,-0.19,9.8,86.75,-0.88,1.12,0,-0.12,-0.05,-0.15,-0.19,9.8,3,267,38.218784,-85.753288,950,7/25/2017,3:46:24,950,183.1,183.1,140.56,0.34,0.34,101470,104,8,27.65,100142.27,44.19,98.94
570581,86.75,-0.88,1.12,-0.01,-0.1,-0.12,-0.15,-0.19,9.8,86.75,-0.88,1.12,0,-0.1,-0.07,-0.15,-0.19,9.8,3,267,38.218781,-85.753288,100,7/25/2017,3:46:26,101,183.1,183.1,135.82,0.45,0.42,101801,106,8,27.66,100145.4,44.22,98.68
571573,86.75,-0.88,1.12,-0.03,-0.11,-0.02,-0.15,-0.19,9.8,86.75,-0.88,1.12,-0.01,-0.11,-0.06,-0.15,-0.19,9.8,3,267,38.218781,-85.753288,183,7/25/2017,3:46:27,184,183.1,183.1,137.2,0.42,0.42,102035,108,8,27.66,100143.08,44.16,98.87
572491,86.75,-0.88,1.12,0,-0.13,-0.09,-0.15,-0.19,9.8,86.75,-0.88,1.12,0,-0.12,-0.07,-0.15,-0.19,9.8,3,267,38.218777,-85.753281,103,7/25/2017,3:46:28,103,183.1,183.1,147.15,0.37,0.39,102269,110,8,27.66,100139.38,44.21,99.18
573341,86.75,-0.88,1.12,0,-0.11,-0.14,-0.15,-0.19,9.8,86.75,-0.88,1.12,0,-0.11,-0.09,-0.15,-0.19,9.8,3,267,38.218777,-85.753281,86,7/25/2017,3:46:29,952,183.1,183.1,147.15,0.37,0.37,102429,111,8,27.66,100142.49,44.15,98.92
574253,86.75,-0.88,1.12,0,-0.12,-0.06,-0.15,-0.19,9.8,86.75,-0.88,1.12,0,-0.12,-0.08,-0.15,-0.19,9.8,3,267,38.218777,-85.753281,868,7/25/2017,3:46:29,868,183.1,183.1,147.64,0.4,0.4,102575,112,8,27.66,100141.12,44.15,99.04
575220,86.75,-0.88,1.12,0,-0.11,-0.05,-0.15,-0.19,9.8,86.75,-0.88,1.12,0,-0.11,-0.06,-0.15,-0.19,9.8,3,267,38.218777,-85.753281,493,7/25/2017,3:46:30,493,183.1,183.1,144.8,0.48,0.48,103068,116,8,27.67,100144.27,44.16,98.77
576222,86.75,-0.88,1.12,-0.01,-0.1,-0.13,-0.15,-0.19,9.8,86.75,-0.88,1.12,0,-0.11,-0.06,-0.15,-0.19,9.8,3,267,38.218777,-85.753281,1494,7/25/2017,3:46:30,1494,183.1,183.1,144.8,0.48,0.48,103120,116,8,27.67,100143.3,44.15,98.85
577117,86.75,-0.88,1.12,0,-0.12,-0.06,-0.15,-0.19,9.8,86.75,-0.88,1.12,0,-0.11,-0.05,-0.15,-0.19,9.8,3,267,38.218773,-85.753281,747,7/25/2017,3:46:32,747,183.1,183.1,137.81,0.42,0.42,103302,118,8,27.67,100143.3,44.17,98.85
578097,86.75,-0.88,1.12,0,-0.11,-0.03,-0.15,-0.19,9.8,86.75,-0.88,1.12,0,-0.11,-0.05,-0.15,-0.19,9.8,3,267,38.218769,-85.753273,694,7/25/2017,3:46:33,694,183.1,183.1,142.72,0.51,0.51,103536,120,8,27.67,100143.71,44.14,98.82
579057,86.75,-0.88,1.12,-0.01,-0.12,-0.02,-0.15,-0.19,9.8,86.75,-0.88,1.12,0,-0.11,-0.04,-0.15,-0.19,9.8,3,267,38.218769,-85.753273,673,7/25/2017,3:46:34,674,183.1,183.1,148.69,0.33,0.33,103770,122,8,27.67,100143.71,44.17,98.82
580014,86.75,-0.88,1.12,0,-0.11,-0.08,-0.15,-0.19,9.8,86.75,-0.88,1.12,0,-0.11,-0.04,-0.15,-0.19,9.8,3,268,38.218765,-85.753273,607,7/25/2017,3:46:35,608,183.1,183.1,156.05,0.25,0.25,104004,124,8,27.67,100144.67,44.17,98.74
580837,86.75,-0.88,1.12,-0.02,-0.14,-0.12,-0.15,-0.19,9.8,86.75,-0.88,1.12,-0.01,-0.11,-0.06,-0.15,-0.19,9.8,3,267,38.218765,-85.753273,93,7/25/2017,3:46:36,93,183.1,183.1,162.36,0.37,0.35,104569,128,8,27.67,100139.61,44.19,99.16
581796,86.75,-0.88,1.12,0,-0.09,-0.01,-0.15,-0.19,9.8,86.75,-0.88,1.12,0,-0.11,-0.05,-0.15,-0.19,9.8,3,267,38.218765,-85.753273,1051,7/25/2017,3:46:36,1051,183.1,183.1,162.36,0.37,0.37,104569,128,8,27.67,100144.12,44.12,98.78
582775,86.75,-0.88,1.12,-0.01,-0.11,-0.1,-0.15,-0.19,9.8,86.75,-0.88,1.12,0,-0.11,-0.07,-0.15,-0.19,9.8,3,268,38.218761,-85.753273,383,7/25/2017,3:46:38,383,183.1,183.1,167.21,0.39,0.39,104803,130,8,27.68,100142.17,44.12,98.95
583677,86.75,-0.88,1.12,0,-0.11,-0.09,-0.15,-0.19,9.8,86.75,-0.88,1.12,0,-0.12,-0.07,-0.15,-0.19,9.8,3,268,38.218761,-85.753273,278,7/25/2017,3:46:39,278,183.1,183.1,218.23,0.46,0.46,105037,132,8,27.67,100142.75,44.07,98.9
584644,86.75,-0.88,1.12,0,-0.11,-0.03,-0.15,-0.19,9.8,86.75,-0.88,1.12,0,-0.11,-0.07,-0.15,-0.19,9.8,3,268,38.218758,-85.753273,200,7/25/2017,3:46:40,200,183.1,183.1,236.56,0.49,0.49,105271,134,8,27.68,100143.94,44.11,98.8
585485,86.75,-0.88,1.12,-0.01,-0.11,-0.09,-0.15,-0.19,9.8,86.75,-0.88,1.12,0,-0.11,-0.07,-0.15,-0.19,9.8,3,268,38.218758,-85.753273,189,7/25/2017,3:46:41,1044,183.1,183.1,236.56,0.49,0.49,105523,135,8,27.68,100140.42,44.1,99.09
586433,86.75,-0.88,1.12,0,-0.1,-0.12,-0.15,-0.19,9.8,86.75,-0.88,1.12,0,-0.12,-0.09,-0.15,-0.19,9.8,3,268,38.218758,-85.753281,44,7/25/2017,3:46:42,44,183.1,183.1,239.44,0.51,0.52,105838,138,8,27.68,100140.8,44.09,99.06
587444,86.75,-0.88,1.12,0,-0.1,-0.04,-0.15,-0.19,9.8,86.75,-0.88,1.12,0,-0.11,-0.05,-0.15,-0.19,9.8,3,268,38.218758,-85.753281,801,7/25/2017,3:46:42,801,183.1,183.1,242.03,0.55,0.55,106070,140,8,27.68,100146.27,44.1,98.6
588361,86.75,-0.88,1.12,0,-0.12,-0.02,-0.15,-0.19,9.8,86.75,-0.88,1.12,0,-0.12,-0.06,-0.15,-0.19,9.8,3,268,38.218754,-85.753288,84,7/25/2017,3:46:44,1721,183.1,183.1,242.03,0.55,0.55,106238,141,8,27.68,100146.27,44.09,98.6
589323,86.75,-0.88,1.12,-0.01,-0.11,-0.12,-0.15,-0.19,9.8,86.75,-0.88,1.12,0,-0.11,-0.07,-0.15,-0.19,9.8,3,268,38.21875,-85.753288,5,7/25/2017,3:46:45,925,183.1,183.1,236.37,0.59,0.59,106384,143,8,27.68,100143.94,44.09,98.8
590223,86.75,-0.88,1.12,0,-0.12,-0.15,-0.15,-0.19,9.8,86.75,-0.88,1.12,0,-0.11,-0.09,-0.15,-0.19,9.8,3,268,38.21875,-85.753288,782,7/25/2017,3:46:45,782,183.1,183.1,234.11,0.65,0.65,106582,144,8,27.68,100146.67,44.11,98.57
591091,86.75,-0.88,1.12,-0.01,-0.12,-0.05,-0.15,-0.19,9.8,86.75,-0.88,1.12,0,-0.11,-0.06,-0.15,-0.19,9.8,3,268,38.21875,-85.753296,594,7/25/2017,3:46:46,594,183.1,183.1,232.84,0.66,0.66,106880,146,8,27.69,100147.48,44.08,98.5
592052,86.75,-0.88,1.12,0,-0.1,-0.04,-0.15,-0.19,9.8,86.75,-0.88,1.12,0,-0.11,-0.05,-0.15,-0.19,9.8,3,268,38.21875,-85.753304,681,7/25/2017,3:46:47,681,183.1,183.1,246.74,0.61,0.61,107114,148,8,27.68,100143.53,44.08,98.83
593023,86.75,-0.88,1.12,0,-0.11,-0.09,-0.15,-0.19,9.8,86.75,-0.88,1.12,-0.01,-0.11,-0.05,-0.15,-0.19,9.8,3,268,38.218746,-85.753311,389,7/25/2017,3:46:48,389,183.1,183.1,239.32,0.54,0.54,107582,152,8,27.68,100144.34,44.1,98.76
593932,86.75,-0.88,1.12,-0.02,-0.11,-0.04,-0.15,-0.19,9.8,86.75,-0.88,1.12,0,-0.12,-0.04,-0.15,-0.19,9.8,3,268,38.218746,-85.753311,1299,7/25/2017,3:46:48,1299,183.1,183.1,239.32,0.54,0.54,107582,152,8,27.69,100143.39,44.1,98.84
594842,86.75,-0.88,1.12,0,-0.12,-0.02,-0.15,-0.19,9.8,86.75,-0.88,1.12,0,-0.12,-0.05,-0.15,-0.19,9.8,3,269,38.218746,-85.753319,453,7/25/2017,3:46:50,453,183.1,183.1,240.93,0.46,0.46,107816,154,8,27.7,100146.35,44.09,98.6
595826,86.75,-0.88,1.12,0,-0.11,-0.11,-0.15,-0.19,9.8,86.75,-0.88,1.12,0,-0.12,-0.07,-0.15,-0.19,9.8,3,269,38.218742,-85.753319,319,7/25/2017,3:46:51,319,183.1,183.1,218.77,0.45,0.45,108158,156,8,27.7,100141.3,44.12,99.02
596807,86.75,-0.88,1.12,-0.01,-0.11,-0.09,-0.15,-0.19,9.8,86.75,-0.88,1.12,0,-0.11,-0.08,-0.15,-0.19,9.8,3,269,38.218739,-85.753319,416,7/25/2017,3:46:52,416,183.1,183.1,208,0.41,0.41,108392,158,8,27.69,100147.31,44.06,98.51
597738,86.75,-0.88,1.12,0,-0.11,-0.02,-0.15,-0.19,9.8,86.75,-0.88,1.12,0,-0.11,-0.06,-0.15,-0.19,9.8,3,269,38.218739,-85.753319,344,7/25/2017,3:46:53,344,183.1,183.1,208.89,0.27,0.27,108626,160,8,27.69,100144.2,44.07,98.78
601330,86.75,-0.88,1.12,0,-0.09,-0.05,-0.15,-0.19,9.8,86.75,-0.88,1.12,0,-0.11,-0.04,-0.15,-0.19,9.8,3,269,38.218739,-85.753326,2738,7/25/2017,3:46:54,2936,183.1,183.1,204.12,0.28,0.28,109189,163,10,27.7,100142.66,44.07,98.91
602159,86.75,-0.88,1.12,0,-0.12,-0.17,-0.15,-0.19,9.8,86.75,-0.88,1.12,0,-0.11,-0.08,-0.15,-0.19,9.8,3,269,38.218739,-85.753326,3567,7/25/2017,3:46:54,3765,183.1,183.1,204.12,0.28,0.28,109252,163,11,27.7,100142.66,44.07,98.91
602678,86.75,-0.88,1.12,0,-0.11,-0.03,-0.15,-0.19,9.8,86.75,-0.88,1.12,0,-0.11,-0.07,-0.15,-0.19,9.8,3,269,38.218731,-85.753319,303,7/25/2017,3:46:58,303,183.1,183.1,119.68,0.16,0.16,109486,165,11,27.7,100140.89,44.07,99.05
603190,86.75,-0.88,1.12,0,-0.11,-0.03,-0.15,-0.19,9.8,86.75,-0.88,1.12,0,-0.11,-0.07,-0.15,-0.19,9.8,3,269,38.218731,-85.753319,814,7/25/2017,3:46:58,814,183.1,183.1,119.68,0.16,0.16,109498,165,11,27.7,100144.03,44.08,98.79
603686,86.75,-0.88,1.12,0,-0.1,-0.03,-0.15,-0.19,9.8,86.75,-0.88,1.12,0,-0.12,-0.06,-0.15,-0.19,9.8,3,269,38.218731,-85.753319,303,7/25/2017,3:46:59,303,183.1,183.1,324.49,0.03,0.03,109720,167,11,27.7,100143.06,44.05,98.87
604199,86.75,-0.88,1.12,-0.01,-0.1,-0.03,-0.15,-0.19,9.8,86.75,-0.88,1.12,0,-0.12,-0.06,-0.15,-0.19,9.8,3,269,38.218731,-85.753319,814,7/25/2017,3:46:59,814,183.1,183.1,324.49,0.03,0.03,109740,167,11,27.7,100140.33,44.07,99.1
604702,86.75,-0.88,1.12,-0.01,-0.13,-0.04,-0.15,-0.19,9.8,86.75,-0.88,1.12,0,-0.12,-0.05,-0.15,-0.19,9.8,3,269,38.218735,-85.753319,202,7/25/2017,3:47:00,323,183.1,183.1,316.33,0.09,0.09,110216,170,11,27.7,100146.76,44.05,98.56
605221,86.75,-0.88,1.12,0,-0.1,-0.11,-0.15,-0.19,9.8,86.75,-0.88,1.12,0,-0.11,-0.08,-0.15,-0.19,9.8,3,269,38.218735,-85.753319,479,7/25/2017,3:47:00,479,183.1,183.1,326.57,0.12,0.12,110296,171,11,27.7,100140.74,44.09,99.07
605741,85.38,1.12,1.31,-0.64,0.47,0.27,0.19,-0.22,9.8,85.51,0.49,1.26,-0.26,0.23,-0.14,0.1,-0.22,9.8,3,269,38.218735,-85.753319,997,7/25/2017,3:47:00,997,183.1,183.1,326.57,0.12,0.12,110296,171,11,27.7,100142.66,44.07,98.91
606256,94.94,3.75,3.69,-0.37,-1.93,1.62,0.62,-0.51,9.77,94.71,4.39,5.08,-0.43,-1.67,1.44,0.73,-0.81,9.74,3,269,38.218735,-85.753319,1513,7/25/2017,3:47:00,1513,183.1,183.1,326.57,0.12,0.12,110324,171,11,27.7,100140.33,44.06,99.1
606782,81,-10.19,-2.19,-0.04,-0.21,-0.77,-1.73,0.37,9.64,82.76,-10.63,-2.4,0.25,-0.68,-1.1,-1.8,0.4,9.62,3,269,38.218735,-85.753326,350,7/25/2017,3:47:02,350,183.1,183.1,327.4,0.31,0.31,110530,173,11,27.7,100136.64,44.1,99.41
607301,63.19,-10.5,0.94,-1.05,0.78,-0.05,-1.79,-0.16,9.63,65.34,-10.65,1.6,-0.83,0.6,-0.45,-1.82,-0.26,9.62,3,269,38.218735,-85.753326,872,7/25/2017,3:47:02,872,183.1,183.1,327.4,0.31,0.31,110590,173,11,27.71,100136.47,44.1,99.43
608634,115.12,0.5,10.5,-0.54,1,-0.11,0.07,-1.71,9.65,80,-2.56,10.21,0.28,1.07,0.19,-0.44,-1.74,9.63,3,270,38.218739,-85.753326,189,7/25/2017,3:47:04,1194,183.1,183.1,330.93,0.33,0.33,110843,176,11,27.71,100140.56,44.07,99.08
609149,130.12,-0.44,8.31,-1.1,-1.01,0.74,-0.07,-1.42,9.7,131.75,0.46,7.95,-1.29,-1.54,0.31,0.06,-1.36,9.71,3,270,38.218739,-85.753326,706,7/25/2017,3:47:04,1711,183.1,183.1,330.93,0.33,0.33,110843,176,11,27.72,100144.52,44.09,98.75
609676,119.31,-3.94,14.31,-0.44,0.62,-1.42,-0.67,-2.42,9.47,120.08,-5.49,13.52,0.47,0.78,-1.13,-0.92,-2.28,9.48,3,270,38.218739,-85.753326,296,7/25/2017,3:47:05,296,183.1,183.1,338.98,0.32,0.32,111077,178,11,27.72,100144.52,44.06,98.75
610186,131.75,-3.81,5.25,-0.09,0.26,-0.56,-0.65,-0.89,9.74,129.58,-2.97,6.53,-0.68,0.49,0,-0.53,-1.09,9.72,3,270,38.218739,-85.753326,805,7/25/2017,3:47:05,806,183.1,183.1,338.98,0.32,0.32,111077,178,11,27.72,100142.19,44.07,98.95
610684,150.56,0.38,-3.12,-1.54,-0.87,0.39,0.07,0.54,9.79,149.43,-0.6,-2.38,-1.17,-0.94,-0.31,-0.07,0.43,9.79,3,270,38.218739,-85.753326,15,7/25/2017,3:47:06,136,183.1,183.1,339.42,0.36,0.36,111509,181,11,27.72,100139.87,44.08,99.14
611186,147.81,-6,2.12,1.85,1.33,-1.76,-1.02,-0.36,9.74,148.99,-4.91,1.23,1.58,0.88,-1.35,-0.86,-0.22,9.76,3,270,38.218739,-85.753326,388,7/25/2017,3:47:06,388,183.1,183.1,342.17,0.37,0.37,111653,182,11,27.72,100137.14,44.01,99.37
611709,152.81,-1.5,-0.81,-1.08,-1.44,0.13,-0.29,0.15,9.8,151.78,-0.97,-0.57,-0.75,-1.23,0.4,-0.18,0.1,9.8,3,270,38.218739,-85.753326,913,7/25/2017,3:47:06,913,183.1,183.1,342.17,0.37,0.37,111653,182,11,27.73,100141.61,44.05,98.99
612226,137.62,-11,1.56,-1.38,-1.03,2.51,-1.88,-0.27,9.62,141.07,-8.9,0.34,-2.16,-1.77,1.78,-1.55,-0.08,9.67,3,270,38.218739,-85.753326,1428,7/25/2017,3:47:06,1428,183.1,183.1,342.17,0.37,0.37,111697,182,11,27.73,100142.02,44.06,98.96
612735,119.44,-22.31,-2.56,0.92,-0.82,-1.74,-3.73,0.4,9.06,120.7,-22.8,-4.67,1.11,-0.76,-0.88,-3.8,0.71,9,3,270,38.218742,-85.753326,347,7/25/2017,3:47:08,347,183.1,183.1,339.06,0.39,0.39,111887,184,11,27.73,100136.55,44.09,99.42
613243,105.94,-7,0.31,-0.35,-0.17,-1.57,-1.2,-0.05,9.73,106.54,-8.52,-0.09,-0.34,0.13,-0.63,-1.42,0.01,9.69,3,270,38.218742,-85.753326,856,7/25/2017,3:47:08,856,183.1,183.1,339.06,0.39,0.39,111943,184,11,27.72,100141.23,44.06,99.03
613763,107.44,-14.25,-3.06,0.33,-1.1,-1.31,-2.42,0.51,9.48,108.27,-13.31,-3.34,0.17,-0.66,-0.51,-2.27,0.55,9.51,3,270,38.218746,-85.753326,376,7/25/2017,3:47:09,376,183.1,183.1,338.48,0.48,0.48,112121,186,11,27.73,100141.61,44.07,98.99
614274,92,-15.44,-1.25,-0.48,1.34,0.12,-2.61,0.2,9.44,93.4,-15.55,0,-0.3,1.13,-0.28,-2.63,0.02,9.44,3,270,38.218746,-85.753326,28,7/25/2017,3:47:10,887,183.1,183.1,338.48,0.48,0.48,112221,187,11,27.73,100140.66,44.06,99.07
614783,90.81,-10.81,-1.56,0.12,-0.44,0.5,-1.84,0.27,9.62,90.18,-10.87,-1.58,-0.23,-0.4,-0.04,-1.85,0.27,9.62,3,270,38.218746,-85.753326,406,7/25/2017,3:47:10,406,183.1,183.1,337.09,0.64,0.64,112355,188,11,27.73,100142.02,44.09,98.96
615328,96.12,-8.88,-1.38,-0.41,0.05,-1.06,-1.52,0.24,9.68,94.58,-8.61,-1.96,-0.56,0.51,-0.6,-1.48,0.32,9.68,3,270,38.218761,-85.753334,72,7/25/2017,3:47:11,951,183.1,183.1,337.09,0.64,0.64,112495,189,11,27.73,100141.47,44.11,99.01
615830,104.81,-7.44,-4.94,1.23,0.57,2.79,-1.27,0.84,9.68,102.79,-8.74,-4.9,0.4,0.07,1.01,-1.47,0.83,9.65,3,270,38.218761,-85.753334,334,7/25/2017,3:47:11,334,183.1,183.1,340.1,0.75,0.75,112697,190,11,27.74,100139.14,44.11,99.2
616359,106.5,-3.31,-4.56,-0.07,-0.53,0.3,-0.57,0.76,9.76,106.73,-3.93,-4.65,0.06,-0.37,0.67,-0.66,0.79,9.75,3,270,38.218773,-85.753334,103,7/25/2017,3:47:12,864,183.1,183.1,340.1,0.75,0.75,112865,191,11,27.74,100140.51,44.08,99.09
616875,99.81,-4.06,0,-0.03,0.11,0.22,-0.7,0,9.78,99.86,-4.19,-1.06,-0.29,0.01,-0.1,-0.72,0.17,9.77,3,270,38.218781,-85.753342,242,7/25/2017,3:47:12,242,183.1,183.1,339.62,0.87,0.87,113165,194,11,27.74,100135.82,44.07,99.48
617395,97.19,-4.12,0.5,-0.39,0.08,0.12,-0.71,-0.08,9.78,97.78,-4.03,1.22,-0.5,-0.05,-0.34,-0.69,-0.19,9.77,3,270,38.218781,-85.753342,765,7/25/2017,3:47:12,765,183.1,183.1,339.62,0.87,0.87,113165,194,11,27.74,100146.38,44.07,98.59
617922,95.94,-6.12,-0.75,-0.08,-0.11,0.57,-1.04,0.13,9.74,95.96,-6.06,-0.59,-0.15,-0.23,0.37,-1.03,0.1,9.75,3,270,38.218781,-85.753342,1289,7/25/2017,3:47:12,1289,183.1,183.1,339.62,0.87,0.87,113165,194,11,27.74,100138.96,44.06,99.22
618422,94.69,-7,-2.62,-0.4,-0.01,0,-1.19,0.44,9.72,94.82,-6.91,-2.19,-0.38,0.03,0.06,-1.18,0.38,9.72,3,271,38.218792,-85.753342,24,7/25/2017,3:47:14,24,183.1,183.1,341.93,0.89,0.88,113389,196,11,27.75,100147.56,44.02,98.49
618918,95.06,-7.19,-3.19,0.09,0.05,-0.14,-1.22,0.55,9.71,95.16,-7.31,-3.12,0.04,-0.07,-0.19,-1.24,0.53,9.71,3,271,38.218792,-85.753342,521,7/25/2017,3:47:14,521,183.1,183.1,341.93,0.89,0.89,113399,196,11,27.74,100138.96,44.04,99.22
619419,94.69,-4.38,-2.75,-0.04,-0.2,0.01,-0.74,0.47,9.76,94.8,-4.53,-2.9,0.04,-0.15,0.2,-0.77,0.49,9.76,3,270,38.2188,-85.753342,36,7/25/2017,3:47:15,36,183.1,183.1,344.46,0.9,0.9,113627,198,11,27.74,100140.33,44.13,99.1
619916,93.5,-6.12,-2.56,0.12,-0.12,0.4,-1.05,0.44,9.73,93.39,-6.07,-2.51,0,-0.08,0.15,-1.04,0.43,9.74,3,270,38.2188,-85.753342,534,7/25/2017,3:47:15,534,183.1,183.1,344.46,0.9,0.9,113633,198,11,27.74,100140.33,44.14,99.1
620418,92.94,-7,-3.81,-0.16,-0.08,-0.24,-1.2,0.65,9.71,92.97,-7.02,-3.57,-0.05,-0.01,-0.11,-1.2,0.61,9.71,3,270,38.218807,-85.753342,156,7/25/2017,3:47:16,1035,183.1,183.1,344.46,0.9,0.9,113857,199,11,27.75,100142.91,44.13,98.89
620915,92.62,-7.06,-7.62,-0.05,0.01,-0.07,-1.2,1.3,9.64,92.68,-7.07,-7.26,-0.03,0,-0.02,-1.21,1.24,9.65,3,270,38.218807,-85.753342,414,7/25/2017,3:47:16,414,183.1,183.1,346.86,0.95,0.95,113975,200,11,27.75,100143.88,44.08,98.8
621447,90.81,-6.94,-11.94,-0.01,0.02,-0.02,-1.19,2.01,9.52,91.33,-6.73,-11.36,-0.02,-0.03,-0.07,-1.16,1.93,9.54,3,3633,38.218815,-85.753342,65,7/25/2017,3:47:17,65,183.1,183.1,349.53,0.98,0.97,114213,202,11,27.75,100136.09,44.05,99.46
621945,89.94,-9.62,-7.31,0.34,0.2,-0.81,-1.66,1.14,9.59,89.41,-8.46,-9.07,0.58,0.34,0.08,-1.48,1.47,9.57,3,3633,38.218815,-85.753342,564,7/25/2017,3:47:17,564,183.1,183.1,349.53,0.98,0.98,114213,202,11,27.75,100143.32,44.14,98.85
622444,93.56,-4.75,3.69,0.42,-0.34,0.97,-0.8,-0.63,9.75,92.79,-5.29,3.01,0.14,-0.48,0.44,-0.89,-0.53,9.74,3,3635,38.21883,-85.753342,55,7/25/2017,3:47:18,55,183.1,183.1,355.99,1.05,1.03,114465,204,11,27.76,100138.27,44.1,99.28
622955,89.69,-7.38,5.81,0,0,-0.09,-1.26,-0.98,9.67,90.17,-7.35,5.8,0,0.13,0.09,-1.25,-0.98,9.67,3,3635,38.218842,-85.753342,316,7/25/2017,3:47:18,316,183.1,183.1,0.27,1.11,1.11,114685,206,11,27.76,100138.64,44.11,99.24
623453,83.31,-5.5,-0.75,0.16,0.66,-0.11,-0.94,0.13,9.76,83.99,-5.68,-0.32,0.22,0.49,0.1,-0.97,0.07,9.75,3,3635,38.218842,-85.753342,815,7/25/2017,3:47:18,815,183.1,183.1,0.27,1.11,1.11,114685,206,11,27.76,100144.92,44.06,98.72
623967,81.12,-0.44,-6.44,0.26,-0.63,-0.06,-0.08,1.1,9.74,81.42,-1,-6.02,0.12,-0.37,0.1,-0.16,1.04,9.74,3,3635,38.218842,-85.753342,1327,7/25/2017,3:47:18,1327,183.1,183.1,0.27,1.11,1.11,114685,206,11,27.77,100140.27,44.08,99.11
624463,75.62,-0.38,-16.31,-0.25,0.95,-0.41,-0.05,2.68,9.43,74.99,-0.36,-17.4,-0.15,1.18,-0.26,-0.06,2.89,9.36,3,3637,38.218849,-85.753342,75,7/25/2017,3:47:20,75,183.1,183.1,3.15,1.11,1.11,114919,208,11,27.77,100138.91,44.03,99.22
624962,91.69,-12.12,2.69,0.15,0.05,-0.67,-2.03,-0.51,9.57,91.47,-12.81,0.46,0.25,0.2,-0.9,-2.15,-0.14,9.55,3,3637,38.218849,-85.753342,575,7/25/2017,3:47:20,575,183.1,183.1,3.15,1.11,1.11,114919,208,11,27.77,100139.31,44.13,99.19
625487,92.12,-5.69,7.31,-0.05,0.16,-0.23,-0.98,-1.24,9.67,92.4,-5.31,7.47,0.09,0.14,-0.03,-0.92,-1.27,9.67,3,3638,38.218857,-85.753342,229,7/25/2017,3:47:21,1101,183.1,183.1,3.15,1.11,1.11,115219,209,11,27.78,100141.45,44.18,99.01
625991,92.69,-2.56,2.75,0.02,0.12,0.08,-0.43,-0.43,9.78,92.73,-2.9,3.44,0,0.14,-0.02,-0.48,-0.56,9.77,3,3638,38.218857,-85.753342,497,7/25/2017,3:47:21,497,183.1,183.1,3.36,1.13,1.13,115261,210,11,27.78,100141.45,44.15,99.01
626493,91.31,-3.19,-8.19,0.47,-0.14,0.11,-0.55,1.44,9.68,91.52,-3.3,-7.35,0.39,-0.17,0.09,-0.56,1.28,9.7,3,3639,38.218868,-85.753342,115,7/25/2017,3:47:22,115,183.1,183.1,2.24,1.16,1.16,115495,212,11,27.78,100140.91,44.12,99.05
626991,86.06,-3.94,-7.25,0.44,0.62,-0.69,-0.73,1.28,9.69,86.52,-3.52,-6.73,0.41,0.39,-0.17,-0.62,1.17,9.71,3,3639,38.218868,-85.753342,615,7/25/2017,3:47:22,615,183.1,183.1,2.24,1.16,1.16,115495,212,11,27.78,100145,44.11,98.71
627781,51,-16.81,-5.44,0.52,1.44,-1.4,-2.87,0.92,9.33,54.59,-16.18,-5.02,0.84,1.1,-1,-2.74,0.83,9.37,3,3641,38.21888,-85.753342,341,7/25/2017,3:47:23,342,183.1,183.1,2.08,1.16,1.16,115729,214,11,27.79,100143.09,44.25,98.87
628687,55.19,-6.19,-4,0.76,-1.87,-1.08,-1.06,0.68,9.72,56.13,-6.21,-5.11,0.39,-1.18,-0.78,-1.06,0.86,9.7,3,3642,38.218891,-85.753372,6,7/25/2017,3:47:24,6,183.1,183.1,347.18,1.19,1.15,116173,218,11,27.78,100138.58,44.14,99.25
629606,56.5,-2.94,1.06,0.05,0.71,-1.12,-0.5,-0.19,9.79,57.43,-2.43,1.14,0.34,0.21,-0.97,-0.42,-0.19,9.79,3,3642,38.218891,-85.753372,925,7/25/2017,3:47:24,926,183.1,183.1,347.18,1.19,1.19,116205,218,11,27.78,100145.96,44.01,98.63
630576,60.25,-1.06,5,0.04,0.79,-0.6,-0.19,-0.86,9.76,59.17,-1.06,4.59,0.25,0.47,-0.33,-0.18,-0.78,9.77,3,3644,38.218895,-85.753365,63,7/25/2017,3:47:26,63,183.1,183.1,348.41,1.14,1.16,116551,220,11,27.78,100146.37,44.03,98.59
631437,51.94,3.69,0.12,0.39,0.64,-0.37,0.66,0.01,9.78,53.1,3.18,0.99,0.47,0.5,-0.42,0.55,-0.16,9.78,3,3646,38.218891,-85.753365,5,7/25/2017,3:47:27,5,183.1,183.1,348.44,1.08,1.13,116751,222,11,27.79,100143.09,44.01,98.87
632382,80,-5.06,-4.12,0.91,-1.54,-1.09,-0.86,0.7,9.74,83.53,-4.99,-7.82,0.61,-2.42,0.62,-0.85,1.31,9.65,3,3647,38.218895,-85.753365,118,7/25/2017,3:47:28,950,183.1,183.1,348.44,1.08,1.08,116985,223,11,27.77,100146.52,44.01,98.58
633302,78.75,-9.69,8.56,1.06,0.41,-3.77,-1.65,-1.43,9.55,81.94,-7.96,2.45,0.69,-1.22,-0.95,-1.37,-0.43,9.62,3,3648,38.218895,-85.753357,43,7/25/2017,3:47:29,892,183.1,183.1,348.62,1.07,1.07,117139,225,11,27.77,100142.05,44.01,98.96
634229,72.12,-12.94,-3.69,0.94,0.99,0.5,-2.19,0.62,9.53,72.85,-12.8,-2.61,0.8,0.82,0.03,-2.18,0.44,9.54,3,3648,38.218895,-85.753357,832,7/25/2017,3:47:29,833,183.1,183.1,350.55,1.04,1.04,117313,226,11,27.78,100144.19,44.05,98.78
635158,84.94,-10.44,5.75,1.52,-0.15,-3.4,-1.77,-0.96,9.59,87.19,-9.96,-0.42,0.66,-0.67,0.89,-1.7,0.05,9.61,3,3650,38.218884,-85.753357,399,7/25/2017,3:47:30,399,183.1,183.1,349.8,0.81,0.81,117849,230,11,27.77,100145.15,44.05,98.7
636110,74.25,-16.12,1.19,2.3,5.94,-4.72,-2.72,-0.2,9.41,75.83,-17.74,-2.36,1.78,5.11,-1.28,-2.99,0.38,9.31,3,3650,38.218884,-85.753357,1350,7/25/2017,3:47:30,1350,183.1,183.1,349.8,0.81,0.81,117849,230,11,27.78,100142.27,43.98,98.94
637020,95.88,-8.94,7.69,2.96,6.73,0.28,-1.52,-1.3,9.59,98.06,-9.12,5.15,1.89,2.62,-0.26,-1.55,-0.87,9.62,3,3652,38.218876,-85.753349,645,7/25/2017,3:47:32,645,183.1,183.1,356.82,0.64,0.64,118087,232,11,27.78,100137.77,43.94,99.32
637896,89.56,-21,-0.06,0.96,4.77,0.55,-3.52,0.01,9.15,94.11,-20.44,1.62,2.01,4.08,0.5,-3.43,-0.25,9.15,3,3653,38.218876,-85.753357,520,7/25/2017,3:47:33,520,183.1,183.1,3.01,0.57,0.57,118321,234,11,27.78,100140.5,44.01,99.09
638862,98.38,-5.31,-1.69,0.44,0.43,1.46,-0.91,0.29,9.75,98.55,-5.27,-1.11,0.14,0.01,0.24,-0.91,0.19,9.76,3,3654,38.218884,-85.753365,437,7/25/2017,3:47:34,437,183.1,183.1,358,0.59,0.59,118559,236,11,27.78,100140.5,44.1,99.09
639714,87.81,-6.88,0.31,-0.13,0.26,0.22,-1.16,-0.05,9.73,88.36,-7.21,-0.23,-0.1,0.26,0.07,-1.23,0.04,9.72,3,3656,38.218884,-85.75338,329,7/25/2017,3:47:35,329,183.1,183.1,352.99,0.49,0.49,118797,238,11,27.79,100140.35,44.08,99.1
640639,96.88,3.88,2.88,-0.12,-0.59,0.1,0.67,-0.5,9.77,96.65,5.59,2.95,-0.1,-0.69,0.43,0.95,-0.5,9.74,3,272,38.218906,-85.753395,6,7/25/2017,3:47:36,132,183.1,183.1,343.73,0.59,0.57,119221,241,11,27.78,100142.27,44.02,98.94
641599,83.75,-6.69,8.31,-0.18,-0.88,-1.02,-1.13,-1.46,9.63,85.6,-5.59,6.52,-0.37,-0.17,-2.13,-0.95,-1.12,9.68,3,272,38.218906,-85.753395,827,7/25/2017,3:47:36,828,183.1,183.1,339.58,0.73,0.73,119377,242,11,27.79,100145.81,43.98,98.64
642445,76.62,-11.81,9.88,0.47,-0.87,0,-2,-1.65,9.45,77.21,-11.56,9.81,0.33,-0.85,-0.15,-1.97,-1.64,9.46,3,272,38.21891,-85.753395,68,7/25/2017,3:47:38,68,183.1,183.1,344.46,0.74,0.74,119611,244,11,27.79,100142.09,43.97,98.95
643344,41.19,-13.94,8.06,0.55,2.84,0.74,-2.36,-1.33,9.42,45.45,-14.7,8.67,0.61,2.06,0.81,-2.49,-1.43,9.37,3,272,38.218918,-85.753403,82,7/25/2017,3:47:39,968,183.1,183.1,344.46,0.74,0.74,119763,245,11,27.79,100140.73,44.02,99.07
644204,42.12,-10.69,1.19,0.42,-0.02,-0.35,-1.81,-0.2,9.63,41.66,-10.23,1.34,0.32,-0.02,-0.17,-1.75,-0.22,9.64,3,272,38.218918,-85.753403,805,7/25/2017,3:47:39,805,183.1,183.1,348.11,0.74,0.74,119865,246,11,27.79,100141.72,43.93,98.99
645018,45.5,-8,2,0.04,0.04,-0.25,-1.36,-0.34,9.7,45.34,-8.14,2.3,0.06,0.03,-0.18,-1.39,-0.39,9.69,3,3662,38.218922,-85.753403,627,7/25/2017,3:47:40,627,183.1,183.1,347.72,0.75,0.75,120083,248,11,27.79,100141.14,43.93,99.03
645958,42.81,-6.56,3.81,0.01,-0.65,-0.22,-1.12,-0.65,9.71,44.58,-6.37,3.26,0.03,-0.72,0.05,-1.09,-0.56,9.72,3,3663,38.218925,-85.753403,462,7/25/2017,3:47:41,462,183.1,183.1,346.68,0.74,0.74,120429,250,11,27.79,100143.46,43.95,98.84
646892,5.06,-5.06,1.44,-0.42,0.78,-0.57,-0.87,-0.24,9.76,9.05,-5.06,2.61,-0.09,0.92,-0.48,-0.87,-0.44,9.75,3,3665,38.218933,-85.753395,250,7/25/2017,3:47:42,250,183.1,183.1,346.7,0.69,0.69,120905,254,11,27.79,100144.27,43.93,98.77
647822,327.25,-7.62,1,0.01,-0.9,-1.11,-1.3,-0.17,9.71,329.17,-6.74,0.77,0.14,-0.81,-0.93,-1.15,-0.13,9.73,3,3665,38.218933,-85.753395,1180,7/25/2017,3:47:42,1180,183.1,183.1,346.7,0.69,0.69,120905,254,11,27.8,100145.49,43.93,98.67
648774,316.06,-3.94,-4.31,0.85,-1.14,1.75,-0.63,0.77,9.75,319.96,-4.09,-4.96,0.52,-1.37,1.26,-0.69,0.85,9.74,3,3667,38.218933,-85.753395,376,7/25/2017,3:47:44,377,183.1,183.1,345.46,0.65,0.65,121143,256,11,27.8,100141.4,43.93,99.01
649735,251.94,-1.38,-6.5,1.29,-0.93,-0.67,-0.21,1.09,9.74,259.54,-2.27,-7.25,1.32,-1.03,-0.29,-0.38,1.23,9.71,3,3668,38.218929,-85.753395,318,7/25/2017,3:47:45,318,183.1,183.1,340.01,0.56,0.56,121381,258,11,27.8,100142.77,43.89,98.9
650649,202.75,-4.44,-1.25,0.64,0.06,-0.34,-0.75,0.22,9.77,203.46,-3.69,-0.96,0.95,0.03,-0.34,-0.63,0.16,9.78,3,273,38.218925,-85.75341,82,7/25/2017,3:47:46,82,183.1,183.1,323.34,0.54,0.55,121723,260,11,27.81,100146.28,43.9,98.6
651491,200.19,-1.06,-5.56,-0.13,0.13,-0.2,-0.19,0.95,9.75,200.97,-1.1,-5.09,0.27,0.01,-0.19,-0.19,0.87,9.76,3,273,38.218929,-85.75341,49,7/25/2017,3:47:47,49,183.1,183.1,321.95,0.48,0.51,121957,262,11,27.81,100143.95,43.89,98.8
652392,187.88,-2.81,-11.12,0.9,0,0,-0.45,1.9,9.6,188.36,-3.89,-10.88,0.88,-0.17,-0.24,-0.65,1.85,9.6,3,273,38.218925,-85.753403,94,7/25/2017,3:47:48,949,183.1,183.1,321.95,0.48,0.48,122117,263,11,27.81,100146.69,43.92,98.57
653262,164.44,2.25,-7.88,0.33,0.41,0.22,0.38,1.35,9.7,168.63,2.29,-7.96,0.6,-0.03,0.28,0.39,1.36,9.7,3,273,38.218925,-85.753403,590,7/25/2017,3:47:48,590,183.1,183.1,324.18,0.27,0.27,122425,266,11,27.81,100144.77,43.87,98.73
654129,137.69,-0.06,-9.25,0.01,0.88,-0.14,-0.01,1.58,9.67,139.09,-0.03,-8.29,-0.12,0.85,-0.12,0,1.42,9.7,3,273,38.218925,-85.753403,1459,7/25/2017,3:47:48,1459,183.1,183.1,324.18,0.27,0.27,122425,266,11,27.81,100146.12,43.86,98.61
654978,128.5,0.38,-10.75,0.12,0.14,-0.17,0.07,1.83,9.63,128.69,0.71,-10.95,0.1,0.12,-0.11,0.12,1.86,9.62,3,273,38.218929,-85.753403,574,7/25/2017,3:47:50,574,183.1,183.1,323.11,0.21,0.21,122659,268,11,27.81,100142.03,43.87,98.96
655929,128.44,-0.25,-8.31,0.03,0.06,-0.17,-0.05,1.42,9.7,128.52,-0.18,-8.43,0.03,0.02,-0.03,-0.03,1.44,9.69,3,273,38.218929,-85.75341,429,7/25/2017,3:47:51,429,183.1,183.1,314.31,0.17,0.17,123001,270,11,27.81,100147.09,43.88,98.53
656766,128.38,0,-7.25,0,-0.02,-0.07,0,1.24,9.72,128.32,-0.11,-7.47,0.04,0,-0.09,-0.02,1.28,9.72,3,273,38.218929,-85.75341,381,7/25/2017,3:47:52,381,183.1,183.1,318.29,0.21,0.21,123235,272,11,27.82,100145.17,43.86,98.7
657590,129.5,1,-6.12,0.14,-0.05,0.55,0.18,1.02,9.75,129.36,0.94,-6.45,0.09,-0.11,0.44,0.16,1.09,9.74,3,273,38.218933,-85.75341,210,7/25/2017,3:47:53,210,183.1,183.1,343.73,0.19,0.19,123469,274,11,27.81,100148.86,43.81,98.39
658501,122.56,-10,1.62,0.58,0.81,-0.68,-1.74,-0.28,9.64,125.2,-8.37,0.73,0.59,0.53,-0.4,-1.45,-0.13,9.69,3,274,38.218933,-85.75341,120,7/25/2017,3:47:54,120,183.1,183.1,5.22,0.22,0.21,123773,276,11,27.82,100141.48,43.85,99
659384,106.81,-9.81,3.75,0.85,0.31,0.85,-1.67,-0.64,9.64,107.46,-10.07,3.84,0.29,0.18,0.19,-1.71,-0.65,9.63,3,3680,38.218933,-85.75341,750,7/25/2017,3:47:54,750,183.1,183.1,23.23,0.24,0.24,123935,278,11,27.82,100145.17,43.88,98.7
660248,86.81,-6.56,1.75,1.07,-0.23,0.1,-1.12,-0.3,9.73,89.96,-6.73,2.03,0.81,-0.04,0,-1.15,-0.34,9.73,3,3680,38.218933,-85.75341,1614,7/25/2017,3:47:54,1614,183.1,183.1,23.23,0.24,0.24,123995,278,11,27.82,100140.11,43.89,99.12
661043,81,-3,4.25,0.25,0.01,-0.08,-0.52,-0.73,9.76,80.98,-2.18,4.25,0.3,-0.26,0,-0.37,-0.73,9.77,3,274,38.218933,-85.75341,531,7/25/2017,3:47:56,531,183.1,183.1,33.66,0.23,0.23,124275,280,11,27.81,100147.5,44.01,98.5
661874,71.44,-3.31,6.19,0.06,0.12,-0.09,-0.57,-1.06,9.73,73.8,-3.55,5.34,-0.18,0.14,-0.05,-0.61,-0.92,9.74,3,274,38.218933,-85.75341,486,7/25/2017,3:47:57,486,183.1,183.1,39.2,0.21,0.21,124507,282,11,27.81,100147.09,43.94,98.53
662719,48.94,-1.56,6,0.17,0.02,-0.16,-0.28,-1.02,9.74,50.37,-1.62,5.98,0.17,-0.02,0,-0.28,-1.02,9.74,3,274,38.218933,-85.753403,341,7/25/2017,3:47:58,341,183.1,183.1,41.83,0.23,0.23,124739,284,11,27.81,100140.67,44.08,99.07
663512,40.94,-3.06,5.44,0.1,-0.2,-0.04,-0.52,-0.93,9.74,41.62,-2.72,5.4,0.07,0.01,-0.02,-0.47,-0.92,9.75,3,274,38.218937,-85.753403,130,7/25/2017,3:47:59,130,183.1,183.1,67.64,0.26,0.25,124971,286,11,27.82,100141.48,44.13,99
664412,32.19,-8.31,12.25,0.16,0.89,0.51,-1.42,-2.06,9.48,32.02,-9.33,11.13,0.62,0.64,-0.06,-1.59,-1.87,9.48,3,274,38.218937,-85.753403,15,7/25/2017,3:48:00,15,183.1,183.1,53.39,0.37,0.3,125191,288,11,27.82,100144.59,44.14,98.74
665357,27.62,-2.44,7.69,0.03,0.12,-0.22,-0.42,-1.29,9.71,27.26,-2.43,7.38,0.13,-0.07,0.07,-0.42,-1.25,9.71,3,274,38.218937,-85.753403,607,7/25/2017,3:48:00,608,183.1,183.1,62.69,0.31,0.31,125543,290,11,27.82,100144.21,44.36,98.78
666208,24.88,-3.19,6.31,0.48,0.28,0.53,-0.54,-1.07,9.73,25.48,-3.68,6.17,0.37,0.18,-0.4,-0.62,-1.05,9.72,3,274,38.218937,-85.753403,1458,7/25/2017,3:48:00,1458,183.1,183.1,62.69,0.31,0.31,125575,290,11,27.81,100147.5,44.24,98.5
667126,23.12,0.69,3.94,0.7,-0.15,0.16,0.13,-0.68,9.78,23.52,0.49,3.94,0.27,-0.04,0.32,0.09,-0.67,9.78,3,274,38.218937,-85.753403,737,7/25/2017,3:48:02,737,183.1,183.1,52.39,0.29,0.29,125775,292,11,27.82,100150.64,44.24,98.24
668072,25.19,1.69,5.31,-0.03,0.16,-0.2,0.29,-0.91,9.75,24.92,2.11,5.22,0.05,0.09,0,0.36,-0.89,9.75,3,274,38.218941,-85.753395,690,7/25/2017,3:48:03,690,183.1,183.1,41.7,0.41,0.41,126007,294,11,27.82,100151.42,44.14,98.17
669011,25.88,-0.06,6.25,0.08,0.01,0.03,-0.01,-1.07,9.74,25.76,-0.05,6.26,0.06,0.07,-0.06,0,-1.07,9.74,3,274,38.218941,-85.753395,620,7/25/2017,3:48:04,620,183.1,183.1,42.04,0.51,0.51,126239,296,11,27.83,100145.41,44.12,98.68
669920,26.81,-0.19,6.62,0.07,0.02,-0.42,-0.04,-1.14,9.73,26.66,0.07,6.33,0.1,0.02,-0.22,0.01,-1.09,9.74,3,274,38.218941,-85.753395,531,7/25/2017,3:48:05,531,183.1,183.1,46.38,0.48,0.48,126471,298,11,27.83,100144.44,44.01,98.76
670869,14.12,-54.31,6.69,8.31,0.52,-5.99,-7.96,-0.67,5.67,16.34,-40.52,8.62,6.73,0.3,-4.22,-6.23,-1.11,7.11,3,274,38.218945,-85.753395,106,7/25/2017,3:48:06,106,183.1,183.1,69.33,0.38,0.39,127043,302,11,27.83,100136.66,44,99.41
671821,352.81,-27.12,7.88,-15.51,-1.88,17.64,-4.19,-1.34,8.76,336.02,-45.09,-27.39,-9.05,1.28,9.57,-6.59,0.72,5.02,3,274,38.218945,-85.753395,1057,7/25/2017,3:48:06,1057,183.1,183.1,69.33,0.38,0.38,127043,302,11,27.82,100147.91,43.93,98.47
672700,22.19,-2.62,6.19,0.23,-0.23,0.63,-0.45,-1.06,9.73,18.6,-3.98,5.24,0.11,0.08,0.59,-0.67,-0.9,9.73,3,275,38.218945,-85.753387,268,7/25/2017,3:48:08,268,183.1,183.1,72.1,0.41,0.41,127275,304,11,27.82,100147.32,44.06,98.51
673518,39.56,1.12,10.06,0.05,-0.47,-0.12,0.2,-1.71,9.65,37.81,1.34,9.23,0.11,-0.41,-0.13,0.23,-1.58,9.67,3,275,38.218945,-85.753387,80,7/25/2017,3:48:09,80,183.1,183.1,76.71,0.42,0.42,127507,306,11,27.82,100143.62,44.1,98.83
674457,85.06,0,5.56,1.19,-0.3,-0.46,0,-0.95,9.76,80.33,0.98,5.11,0.9,-0.23,-0.52,0.16,-0.88,9.76,3,275,38.218945,-85.75338,21,7/25/2017,3:48:10,21,183.1,183.1,81.99,0.38,0.41,127715,308,11,27.83,100142.67,44.13,98.91
675402,105.5,8.5,-0.5,-1.37,-1.11,0.08,1.45,0.09,9.69,105.53,7.39,0.58,-0.9,-0.71,-0.1,1.27,-0.09,9.71,3,275,38.218945,-85.75338,138,7/25/2017,3:48:11,965,183.1,183.1,81.99,0.38,0.38,127951,309,11,27.83,100145.41,44.13,98.68
676287,108.94,2.69,5.69,-0.19,0.08,-1.66,0.46,-0.97,9.74,109.43,2.93,6.22,-0.27,0.06,-1.44,0.5,-1.06,9.73,3,275,38.218945,-85.75338,33,7/25/2017,3:48:12,793,183.1,183.1,133.48,0.33,0.33,128185,311,11,27.83,100148.13,44.06,98.45
677108,107.81,-0.25,2.81,-0.08,0,-0.04,-0.04,-0.48,9.79,107.8,-0.45,3.03,-0.21,-0.05,0.04,-0.07,-0.52,9.79,3,275,38.218941,-85.75338,484,7/25/2017,3:48:12,484,183.1,183.1,164.52,1.02,1.02,128549,314,11,27.83,100149.91,43.96,98.3
677976,108,0.88,4.31,-0.26,0.02,-0.12,0.15,-0.74,9.77,108.17,1.16,4.32,-0.19,0,0.06,0.2,-0.74,9.77,3,275,38.218941,-85.75338,1354,7/25/2017,3:48:12,1354,183.1,183.1,164.52,1.02,1.02,128549,314,11,27.83,100149.91,43.92,98.3
678854,108.5,-1,3.75,0,0.03,0.01,-0.17,-0.64,9.78,108.44,-0.8,3.76,-0.03,-0.04,-0.07,-0.14,-0.64,9.78,3,275,38.218922,-85.75338,449,7/25/2017,3:48:14,449,183.1,183.1,169.49,1.04,1.04,128783,316,11,27.83,100147.58,43.86,98.49
679697,108.5,-2.94,3.69,0.02,-0.06,-0.52,-0.51,-0.63,9.77,108.65,-2.37,3.84,0.05,-0.02,-0.35,-0.41,-0.66,9.77,3,275,38.21891,-85.753387,295,7/25/2017,3:48:15,295,183.1,183.1,172.1,1.05,1.05,129017,318,11,27.84,100148.36,43.87,98.43
680590,109.38,-3.19,8.38,-4.25,-2.24,13.42,-0.55,-1.43,9.68,109.54,-2.54,6.54,-3.67,-1.66,10.31,-0.44,-1.13,9.72,3,275,38.218903,-85.753387,80,7/25/2017,3:48:16,81,183.1,183.1,172.17,1.05,1.05,129359,320,11,27.84,100155.61,43.85,97.82
681440,165.12,-61.12,-140.25,8.58,-2.99,3.44,-8.56,2.82,-3.85,150.68,-60.5,-115.4,8.55,-4.05,1.54,-8.51,3.83,-1.91,3,275,38.218895,-85.753395,43,7/25/2017,3:48:17,43,183.1,183.1,172.2,1.02,1.04,129593,322,11,27.84,100130.6,43.85,99.92
682337,216.06,-32.44,174.69,-2.38,-1.19,-5.31,-5.26,-0.76,-8.23,217.85,-31.45,125.88,-4.12,-2.01,-6.02,-5.11,-0.45,-8.33,3,276,38.218887,-85.753395,79,7/25/2017,3:48:18,940,183.1,183.1,172.2,1.02,1.02,129749,323,11,27.82,100151.42,43.96,98.17
683297,144.81,-16.81,-12.06,-0.61,0.44,3.63,-2.69,1.97,9.22,148.55,-21.68,-10.23,0.03,-0.34,-0.81,-3.57,1.59,8.92,3,276,38.218884,-85.75341,660,7/25/2017,3:48:18,660,183.1,183.1,184.85,1.01,1.01,130061,326,11,27.82,100142.27,44.07,98.94
684194,112.94,-2.56,0.62,-0.21,-0.17,-0.4,-0.44,-0.11,9.79,114.63,-0.94,-0.81,-0.02,-0.11,0.3,-0.17,0.13,9.79,3,276,38.218884,-85.75341,1557,7/25/2017,3:48:18,1557,183.1,183.1,184.85,1.01,1.01,130069,326,11,27.83,100138.42,44.01,99.26
685113,110.81,-4.5,5.06,0.62,0.51,-0.7,-0.77,-0.86,9.73,111.23,-4.36,4.99,-0.09,0.12,-0.32,-0.74,-0.85,9.73,3,276,38.218872,-85.75341,717,7/25/2017,3:48:20,717,183.1,183.1,188.89,1,1,130295,328,11,27.83,100146.22,43.95,98.61
685923,104.69,2.69,1.44,-0.28,-0.12,-0.11,0.46,-0.25,9.79,105.54,2.41,1.4,-0.1,-0.02,-0.19,0.41,-0.24,9.79,3,276,38.218876,-85.753418,418,7/25/2017,3:48:21,418,183.1,183.1,188.29,0.88,0.88,130637,330,11,27.83,100143.89,43.9,98.8
686700,106.25,-4.88,4.56,-0.08,-0.13,-0.01,-0.83,-0.78,9.73,105.73,-4.06,4.64,0,-0.09,-0.13,-0.7,-0.79,9.74,3,276,38.218857,-85.753395,308,7/25/2017,3:48:22,308,183.1,183.1,175.66,0.96,0.96,130871,332,11,27.83,100149.36,43.92,98.34
687572,104.81,-1.56,4,-0.13,0.19,-1.46,-0.25,-0.69,9.77,105.04,-2.2,4.2,-0.17,0.09,-0.82,-0.37,-0.72,9.77,3,276,38.218834,-85.75338,191,7/25/2017,3:48:23,191,183.1,183.1,166.33,1.11,1.09,131105,334,11,27.83,100142.52,43.92,98.92
688450,103.5,1.19,3.81,0.61,0.07,1.1,0.21,-0.65,9.78,103.52,1.12,3.91,0.48,0.03,0.84,0.19,-0.67,9.78,3,276,38.21883,-85.753372,64,7/25/2017,3:48:24,64,183.1,183.1,164.55,1.08,1.09,131361,336,11,27.84,100152.47,43.87,98.08
689394,106.88,-1,5.75,-0.98,0.11,1.71,-0.2,-1,9.75,106.48,-0.64,5.17,-0.4,0.1,0.94,-0.11,-0.89,9.76,3,276,38.218826,-85.753365,757,7/25/2017,3:48:24,757,183.1,183.1,165.07,1.11,1.11,131573,338,11,27.84,100152.88,43.85,98.05
690313,115.44,-51.81,-18.19,7.92,-2.14,-5.75,-7.8,1.93,5.61,113.04,-44.65,-12.44,7,-1.63,-6.62,-6.86,1.4,6.66,3,276,38.218815,-85.753365,42,7/25/2017,3:48:26,1677,183.1,183.1,165.07,1.11,1.11,131689,339,11,27.84,100122.81,43.8,100.57
691229,108.19,-31.62,-36.69,-11.7,12.66,-0.08,-5.14,4.99,6.69,117.76,-44.94,-64.45,-10.64,8.88,4.77,-6.72,4.68,3.57,3,276,38.218815,-85.753365,715,7/25/2017,3:48:26,715,183.1,183.1,167,1.01,1.01,131975,340,11,27.83,100150.87,43.8,98.22
692083,103.25,-5.19,-8.25,0.77,-0.36,-0.31,-0.88,1.4,9.66,103.16,-7.17,-9.43,0.6,-0.43,-0.36,-1.21,1.59,9.59,3,276,38.218807,-85.753357,703,7/25/2017,3:48:27,704,183.1,183.1,163.65,0.98,0.98,132149,342,11,27.82,100151.83,43.86,98.14
693055,105.38,-4.69,-1.31,-0.04,-0.08,-0.11,-0.8,0.22,9.77,104.17,-4.89,-1.76,0.16,0.2,-0.25,-0.83,0.3,9.76,3,276,38.218807,-85.753357,667,7/25/2017,3:48:28,667,183.1,183.1,159.04,0.97,0.97,132383,344,11,27.83,100150.31,43.84,98.26
693966,105,-8,-1.44,0.01,0.13,-0.24,-1.36,0.24,9.7,105.31,-7.99,-1.31,-0.03,0.09,-0.12,-1.36,0.22,9.7,3,276,38.2188,-85.753349,526,7/25/2017,3:48:29,526,183.1,183.1,155.7,0.98,0.98,132617,346,11,27.83,100150.72,43.82,98.23
694911,103.06,-9.31,2.25,-0.01,0,0.01,-1.59,-0.38,9.66,103.06,-9.42,1.99,0.04,-0.05,0.03,-1.6,-0.34,9.66,3,277,38.2188,-85.753342,112,7/25/2017,3:48:30,112,183.1,183.1,159.42,0.81,0.82,133193,350,11,27.84,100152.47,43.82,98.08
695777,104.38,-7.69,3.5,0,-0.16,0.03,-1.31,-0.59,9.7,104.2,-7.88,3.2,0.1,-0.16,-0.05,-1.34,-0.54,9.69,3,277,38.2188,-85.753342,978,7/25/2017,3:48:30,978,183.1,183.1,159.42,0.81,0.81,133193,350,11,27.83,100149.36,43.78,98.34
696660,103.12,-8.88,3.5,0.09,-0.02,0,-1.51,-0.59,9.67,103.27,-9.1,3.69,0.05,-0.04,0.03,-1.55,-0.62,9.66,3,277,38.2188,-85.753334,235,7/25/2017,3:48:32,235,183.1,183.1,152.74,0.74,0.74,133427,352,11,27.83,100146.22,43.79,98.61
697608,103.38,-5.5,3.38,-0.4,0.51,0.35,-0.92,-0.55,9.74,104.27,-6.17,3.81,-0.25,0.06,-0.2,-1.05,-0.64,9.72,3,277,38.2188,-85.753334,218,7/25/2017,3:48:33,218,183.1,183.1,155.71,0.69,0.69,133661,354,11,27.83,100148.95,43.78,98.38
698577,105.69,-2.88,2.75,-0.09,-0.14,0.06,-0.47,-0.46,9.78,105.49,-2.42,2.94,0.11,-0.06,-0.23,-0.42,-0.5,9.78,3,277,38.218803,-85.753334,185,7/25/2017,3:48:34,186,183.1,183.1,151.54,0.61,0.62,133895,356,11,27.84,100148.36,43.78,98.43
699464,103.12,-4.19,1.88,-0.16,-0.11,-0.35,-0.72,-0.32,9.77,103.59,-3.99,1.95,-0.06,-0.05,-0.13,-0.69,-0.33,9.77,3,277,38.218803,-85.753326,82,7/25/2017,3:48:35,82,183.1,183.1,150.04,0.57,0.58,134129,358,11,27.84,100148.36,43.8,98.43
700345,104.69,-0.94,5.5,0.75,-0.05,1.36,-0.11,-1.02,9.75,104.65,-3.02,3.98,0.83,0.08,-1.42,-0.49,-0.71,9.76,3,277,38.218803,-85.753326,86,7/25/2017,3:48:36,962,183.1,183.1,150.04,0.57,0.57,134285,359,11,27.84,100153.83,43.78,97.97
701294,99.38,-51.94,-17.81,7.8,-2,-6.05,-7.77,1.96,5.64,98.91,-47.42,-7.64,7.33,-1,-6.72,-7.21,0.82,6.42,3,277,38.218803,-85.753326,539,7/25/2017,3:48:36,539,183.1,183.1,148.45,0.56,0.56,134705,362,11,27.84,100123.77,43.77,100.49
702250,62.19,-19.88,-46.81,-7.33,11.52,0.53,-3.33,6.72,6.31,71.13,-27.32,-71.4,-8.49,13.45,4.57,-4.41,7.04,2.99,3,277,38.218807,-85.753326,7,7/25/2017,3:48:38,1497,183.1,183.1,148.45,0.56,0.56,134781,363,11,27.82,100147.91,43.77,98.47
703214,126.12,-10.06,5.75,0.15,0.88,2.68,-1.65,-0.94,9.62,120.47,-9.98,5.62,0.86,1.12,-0.12,-1.69,-0.95,9.56,3,277,38.218807,-85.753326,837,7/25/2017,3:48:38,837,183.1,183.1,143.27,0.46,0.46,134975,364,11,27.82,100140.49,43.91,99.09
704073,168.62,-5.69,-0.38,0.39,-1.2,0.19,-0.98,0.06,9.75,167.63,-6.43,0.45,0.14,-1.02,0.54,-1.09,-0.07,9.74,3,277,38.218803,-85.753326,695,7/25/2017,3:48:39,695,183.1,183.1,146.75,0.42,0.42,135173,366,11,27.82,100137.76,43.89,99.32
704966,145.94,-3.81,3.5,-0.16,0.12,-0.99,-0.65,-0.6,9.76,148.3,-2.14,3.81,-0.36,0.45,-0.31,-0.37,-0.65,9.77,3,277,38.218803,-85.753326,587,7/25/2017,3:48:40,587,183.1,183.1,219.78,0.05,0.05,135407,368,11,27.83,100142.12,43.86,98.95
705930,91.69,-2.94,2.75,0.08,-1.8,0.14,-0.5,-0.48,9.78,101.09,-2.97,0.79,0.24,-2.69,0.1,-0.51,-0.16,9.78,3,277,38.218803,-85.753326,422,7/25/2017,3:48:41,422,183.1,183.1,300.57,0.04,0.04,135749,370,11,27.84,100141.53,43.9,99
706835,53.69,-6.44,8.5,0.43,0.34,0.2,-1.1,-1.44,9.63,54.73,-6.52,8.65,-0.24,0.39,0.14,-1.11,-1.47,9.62,3,278,38.218803,-85.753326,207,7/25/2017,3:48:42,207,183.1,183.1,3.4,0.11,0.1,136211,374,11,27.83,100142.52,43.84,98.92
707764,61.12,-5.56,8.31,-0.29,0.42,-0.59,-0.95,-1.41,9.65,60.22,-5.07,8.29,-0.11,0.2,-0.18,-0.87,-1.41,9.66,3,278,38.218803,-85.753326,1136,7/25/2017,3:48:42,1136,183.1,183.1,3.4,0.11,0.11,136211,374,11,27.84,100150.14,43.93,98.28
708636,56,-6.44,5.69,-0.34,0,0.06,-1.1,-0.96,9.69,56.21,-6.16,5.97,-0.26,-0.18,0.1,-1.05,-1.02,9.69,3,3746,38.218803,-85.753326,254,7/25/2017,3:48:44,254,183.1,183.1,352.66,0.23,0.22,136449,376,11,27.84,100139.62,44.06,99.16
709498,56.06,-7.5,4.25,-0.01,-0.08,-0.22,-1.28,-0.72,9.69,56.09,-7.61,4.83,-0.09,-0.09,-0.13,-1.3,-0.82,9.68,3,3747,38.218807,-85.753326,107,7/25/2017,3:48:45,107,183.1,183.1,343.94,0.23,0.23,136687,378,11,27.84,100146.04,44.18,98.62
710443,55.06,2,-1.81,2.97,0.43,-3.14,0.34,0.31,9.79,55.63,-1.59,-0.71,2.49,-0.1,-8.02,-0.26,0.13,9.78,3,278,38.218807,-85.753326,171,7/25/2017,3:48:46,1050,183.1,183.1,343.94,0.23,0.23,136931,379,11,27.84,100143.71,44.61,98.82
711397,70.31,-9.19,-19.44,1.61,-3.31,-9.42,-1.51,3.37,9.08,67.54,-11.68,-11.49,2.08,-2.07,-9.52,-1.97,1.95,9.28,3,278,38.218807,-85.753326,6,7/25/2017,3:48:47,6,183.1,183.1,351.22,0.26,0.21,137233,382,11,27.83,100122.03,44.29,100.64
712278,109.38,-9.06,-10.19,-6.18,-4.91,15.94,-1.54,1.72,9.53,107.83,1.6,-23.6,0.14,0.34,4.59,0.17,3.64,8.55,3,3752,38.218811,-85.753326,3,7/25/2017,3:48:48,884,183.1,183.1,351.22,0.26,0.26,137351,383,11,27.83,100136.66,44.07,99.41
713187,103.75,1.31,1.88,1.03,0.66,-2.52,0.09,-0.42,9.79,105.18,3.45,0.91,0.49,1.63,-2.68,0.56,-0.17,9.77,3,3752,38.218811,-85.753326,538,7/25/2017,3:48:48,538,183.1,183.1,14.67,0.27,0.27,137733,386,11,27.82,100141.48,44.06,99
714085,99.31,-1.94,2.81,-0.18,0.74,-0.95,-0.33,-0.48,9.78,98.98,-0.84,3.5,-0.24,0.1,-0.49,-0.15,-0.59,9.78,3,3752,38.218811,-85.753326,1436,7/25/2017,3:48:48,1437,183.1,183.1,14.67,0.27,0.27,137733,386,11,27.82,100132.7,43.96,99.74
715058,70,0.06,2.94,-0.31,-0.04,0.65,0.02,-0.5,9.79,71.51,-0.71,0.86,-0.25,0,0.88,-0.12,-0.15,9.79,3,3754,38.218811,-85.753326,612,7/25/2017,3:48:50,612,183.1,183.1,17.27,0.23,0.23,137969,388,11,27.83,100138.98,44.05,99.22
715972,69.81,-1.75,4.06,0.15,0.31,0.09,-0.3,-0.69,9.77,70.38,-1.15,4.21,0.12,0.45,-0.09,-0.2,-0.72,9.77,3,278,38.218815,-85.753319,432,7/25/2017,3:48:51,432,183.1,183.1,16.13,0.31,0.31,138309,390,11,27.84,100141.53,44.09,99
716754,66.88,-2.06,5.06,0.31,-0.29,0.29,-0.32,-0.89,9.76,66.71,-2.34,4.43,0.21,-0.16,-0.04,-0.39,-0.76,9.76,3,278,38.218815,-85.753319,376,7/25/2017,3:48:52,376,183.1,183.1,6.31,0.37,0.37,138539,392,11,27.84,100141.94,44.02,98.97
717707,67,-2.44,2.44,0.23,0.06,-0.27,-0.41,-0.41,9.78,67.19,-2.26,2.1,0.21,0.17,-0.13,-0.39,-0.36,9.79,3,3759,38.218815,-85.753319,267,7/25/2017,3:48:53,267,183.1,183.1,354.75,0.35,0.35,138777,394,11,27.83,100142.52,44.18,98.92
718624,64.81,-4.31,3.56,0.22,0.14,-0.11,-0.74,-0.61,9.75,65.09,-3.96,3.88,0.16,0.08,-0.16,-0.68,-0.66,9.75,3,3760,38.218819,-85.753319,119,7/25/2017,3:48:54,226,183.1,183.1,357.05,0.35,0.35,139201,397,11,27.84,100141.94,44.12,98.97
719561,62.94,0,1.75,0.43,0.1,-3.04,0,-0.3,9.8,63.36,-2.07,1.77,0.07,0.04,-3.53,-0.35,-0.3,9.79,3,3760,38.218819,-85.753319,925,7/25/2017,3:48:54,925,183.1,183.1,359.47,0.39,0.39,139253,398,11,27.84,100141.53,44.07,99
720497,67.19,19,6.19,0,-1.64,15.53,3.19,-1,9.21,65.44,22.98,4.34,-0.21,-0.6,12.45,3.82,-0.69,8.98,3,3763,38.218822,-85.753319,229,7/25/2017,3:48:56,1861,183.1,183.1,359.47,0.39,0.39,139557,399,11,27.84,100155.61,44.12,97.82
721472,109.5,-20.12,-31.06,3.42,-4.88,-7.74,-3.35,4.8,7.86,103.75,-21.23,-26.86,3.61,-4.26,-8.07,-3.54,4.15,8.09,3,3764,38.218826,-85.753319,84,7/25/2017,3:48:57,84,183.1,183.1,346.39,0.61,0.55,139837,402,11,27.84,100117.34,44.01,101.03
722298,117.31,23.12,-7.69,-1.44,1.15,13.77,3.85,1.21,8.93,122.81,17.74,-2.87,0.29,1.26,14.48,3.03,0.49,9.17,3,3766,38.218834,-85.753326,45,7/25/2017,3:48:58,912,183.1,183.1,346.39,0.61,0.61,139953,403,11,27.82,100149.09,43.93,98.37
723243,78.88,-2.88,-6.38,1.44,-1.39,-1.17,-0.49,1.09,9.73,82.55,-4.35,-6.94,1.14,-2.02,-1.32,-0.74,1.18,9.7,3,3766,38.218834,-85.753326,850,7/25/2017,3:48:58,850,183.1,183.1,348.8,0.7,0.7,140131,404,11,27.83,100141.3,43.93,99.02
724186,65,-4.25,-1.25,0.38,-0.49,-0.76,-0.72,0.21,9.77,68.78,-3.94,-0.75,0.13,0,-0.24,-0.68,0.13,9.77,3,3767,38.218838,-85.753326,795,7/25/2017,3:48:59,795,183.1,183.1,350.21,0.65,0.65,140321,406,11,27.83,100143.48,43.88,98.84
725119,61.94,-7.56,3.81,0.15,-0.73,-0.36,-1.3,-0.63,9.69,61.96,-7.43,4.29,0.07,0.37,-0.08,-1.27,-0.72,9.69,3,3769,38.218853,-85.753326,364,7/25/2017,3:49:00,364,183.1,183.1,358.95,0.74,0.74,140897,410,11,27.83,100142.52,43.9,98.92
726010,62.5,-6.69,3.06,0.3,-0.51,0.06,-1.16,-0.5,9.72,62.56,-6.82,3.52,0.06,-0.16,0.15,-1.17,-0.59,9.71,3,3769,38.218853,-85.753326,1255,7/25/2017,3:49:00,1255,183.1,183.1,358.95,0.74,0.74,140897,410,11,27.84,100138.25,44.12,99.28
726909,61.44,-5.25,3.31,-0.08,0.04,0.09,-0.91,-0.54,9.74,61.15,-4.87,3.77,-0.04,-0.02,0,-0.84,-0.64,9.74,3,3771,38.218864,-85.753326,516,7/25/2017,3:49:02,516,183.1,183.1,4.18,0.78,0.78,141131,412,11,27.84,100140.58,43.99,99.08
727867,61.69,5.25,5.81,0.44,-0.33,2.34,1,-1.01,9.7,60.33,2.22,3.55,0.54,-0.19,1.67,0.4,-0.61,9.76,3,3773,38.218868,-85.753326,494,7/25/2017,3:49:03,494,183.1,183.1,7.02,0.8,0.8,141365,414,11,27.84,100146.85,44.04,98.55
728778,64.94,4.69,2.38,0,0.53,-0.76,0.82,-0.41,9.76,65.13,4.9,2.31,0.08,0.01,-0.51,0.84,-0.39,9.76,3,3774,38.218868,-85.753326,403,7/25/2017,3:49:04,403,183.1,183.1,8.67,0.75,0.75,141599,416,11,27.85,100152.73,44.17,98.06
729718,57,8.69,-0.31,-0.05,0.12,-0.78,1.48,0.05,9.69,57.57,8.69,0.41,-0.2,0.38,-0.06,1.48,-0.07,9.69,3,3775,38.218864,-85.753326,329,7/25/2017,3:49:05,330,183.1,183.1,9.04,0.7,0.7,141833,418,11,27.84,100149.59,44.03,98.32
730636,58.31,-24.75,15.69,4.19,1.95,-10.64,-4.14,-2.03,8.64,61.79,-13.15,17.76,6.31,-0.54,4.8,-2.26,-2.73,8.81,3,3777,38.218849,-85.753319,4,7/25/2017,3:49:06,140,183.1,183.1,9.64,0.64,0.65,142265,421,11,27.84,100150.95,44.11,98.21
731450,207.62,-33.38,173.25,5.41,0.83,7.45,-5.4,-0.95,-8.12,188.91,-35.49,-46.93,5.7,-1.79,6.7,-5.68,1.63,-7.3,3,3777,38.218849,-85.753319,706,7/25/2017,3:49:06,706,183.1,183.1,12.42,0.54,0.54,142411,422,11,27.83,100120.66,43.98,100.76
732411,121.75,42.81,69.75,3.45,-2.34,3.65,6.67,-6.74,2.48,118.76,45.27,88.01,4.85,-4.34,0.99,6.95,-6.58,0.27,3,3780,38.218853,-85.753319,19,7/25/2017,3:49:08,19,183.1,183.1,7.22,0.51,0.53,142627,424,11,27.81,100145.72,43.91,98.65
