millis,Heading / Euler X (degrees Magnetic) [raw],Heading / Euler X (degrees Magnetic),Roll / Euler Y,Pitch / Euler Z,Linear Accel (X),Linear Accel (Y),Linear Accel (Z),Gravity Accel (X),Gravity Accel (Y),Gravity Accel (Z),# Satellites Tracking,HDOP (Horizontal Dilution of Precision),Latitude,Longitude,Fix Age,Date (UTC),Time (UTC),Date Age,Altitude (meters),Vehicle Heading (degrees True),Vehicle Speed (knots),Characters Received,Sentences Received,# Checksum Failures,Ambient Temperature (*Celcius),Ambient Pressure (Pascal) [filtered],Ambient Pressure (Pascal) [raw],Relative Humidity (%),Altitude (meters) [filtered],Altitude (meters) [raw],
3984,0,0,-1.31,1.94,0,0,0.25,-0.23,-0.33,9.79,7,127,38.219017,-85.75338,19,7/25/2017,1:54:28,19,129.4,165.2,1.13,317,2,1,27.75,NAN ,100064.23,44.47,NAN ,105.5
4011,0,0,-1.31,1.94,0,0,0.24,-0.23,-0.33,9.79,7,127,38.219017,-85.75338,48,7/25/2017,1:54:28,48,129.4,165.2,1.13,339,2,1,27.74,NAN ,100066.55,44.46,NAN ,105.31
4038,0,0,-1.31,1.94,0,0,0.24,-0.23,-0.33,9.79,7,127,38.219017,-85.75338,76,7/25/2017,1:54:28,76,129.4,165.2,1.13,339,2,1,27.74,NAN ,100066.55,44.46,NAN ,105.31
4068,0,0,-1.31,1.94,0,0,0.25,-0.23,-0.33,9.79,7,127,38.219017,-85.75338,103,7/25/2017,1:54:28,103,129.4,165.2,1.13,339,2,1,27.75,NAN ,100065.03,44.47,NAN ,105.43
4093,0,0,-1.31,1.94,0,0,0.24,-0.23,-0.33,9.79,7,127,38.219017,-85.75338,129,7/25/2017,1:54:28,129,129.4,165.2,1.13,339,2,1,27.75,NAN ,100065.03,44.47,NAN ,105.43
4119,0,0,-1.31,1.94,0,0,0.25,-0.23,-0.33,9.79,7,127,38.219017,-85.75338,154,7/25/2017,1:54:28,154,129.4,165.2,1.13,339,2,1,27.75,NAN ,100065.03,44.47,NAN ,105.43
4146,0,0,-1.31,1.94,0,0,0.24,-0.23,-0.33,9.79,7,127,38.219017,-85.75338,181,7/25/2017,1:54:28,181,129.4,165.2,1.13,339,2,1,27.76,NAN ,100062.12,44.46,NAN ,105.68
4171,0,0,-1.31,1.94,0,0,0.24,-0.23,-0.33,9.79,7,127,38.219017,-85.75338,208,7/25/2017,1:54:28,208,129.4,165.2,1.13,339,2,1,27.76,NAN ,100062.12,44.46,NAN ,105.68
4199,0,0,-1.31,1.94,0,0,0.23,-0.23,-0.33,9.79,7,127,38.219017,-85.75338,237,7/25/2017,1:54:28,237,129.4,165.2,1.13,339,2,1,27.76,NAN ,100062.12,44.46,NAN ,105.68
4228,0,0,-1.31,1.94,0,0,0.25,-0.23,-0.33,9.79,7,127,38.219017,-85.75338,265,7/25/2017,1:54:28,265,129.4,165.2,1.13,339,2,1,27.76,NAN ,100064.48,44.48,NAN ,105.48
4261,0,0,-1.31,1.94,0,0,0.24,-0.23,-0.33,9.79,7,127,38.219017,-85.75338,298,7/25/2017,1:54:28,298,129.4,165.2,1.13,339,2,1,27.76,NAN ,100064.48,44.48,NAN ,105.48
4290,0,0,-1.31,1.94,0,0,0.25,-0.23,-0.33,9.79,7,127,38.219017,-85.75338,327,7/25/2017,1:54:28,327,129.4,165.2,1.13,339,2,1,27.76,NAN ,100068.41,44.46,NAN ,105.15
4318,0,0,-1.31,1.94,0,0,0.25,-0.23,-0.33,9.79,7,127,38.219017,-85.75338,353,7/25/2017,1:54:28,353,129.4,165.2,1.13,339,2,1,27.76,NAN ,100068.41,44.46,NAN ,105.15
4344,0,0,-1.31,1.94,0,0,0.23,-0.23,-0.33,9.79,7,127,38.219017,-85.75338,379,7/25/2017,1:54:28,379,129.4,165.2,1.13,339,2,1,27.76,NAN ,100068.41,44.46,NAN ,105.15
4370,0,0,-1.31,1.94,0,0,0.24,-0.23,-0.33,9.79,7,127,38.219017,-85.75338,406,7/25/2017,1:54:28,406,129.4,165.2,1.13,339,2,1,27.76,NAN ,100064.3,44.51,NAN ,105.49
4396,0,0,-1.31,1.94,0,0,0.23,-0.23,-0.33,9.79,7,127,38.219017,-85.75338,433,7/25/2017,1:54:28,433,129.4,165.2,1.13,339,2,1,27.76,NAN ,100064.3,44.51,NAN ,105.49
4424,0,0,-1.31,1.94,0,0,0.25,-0.23,-0.33,9.79,7,127,38.219017,-85.75338,459,7/25/2017,1:54:28,459,129.4,165.2,1.13,339,2,1,27.77,NAN ,100067.45,44.45,NAN ,105.23
4450,0,0,-1.31,1.94,0,0,0.24,-0.23,-0.33,9.79,7,127,38.219017,-85.75338,487,7/25/2017,1:54:28,487,129.4,165.2,1.13,339,2,1,27.77,NAN ,100067.45,44.45,NAN ,105.23
4478,0,0,-1.31,1.94,0,0,0.25,-0.23,-0.33,9.79,7,127,38.219017,-85.75338,515,7/25/2017,1:54:28,515,129.4,165.2,1.13,339,2,1,27.77,NAN ,100067.45,44.45,NAN ,105.23
4507,0,0,-1.31,1.94,0,0,0.25,-0.23,-0.33,9.79,7,127,38.219017,-85.75338,544,7/25/2017,1:54:28,544,129.4,165.2,1.13,339,2,1,27.77,NAN ,100067.45,44.47,NAN ,105.23
4628,0,0,-1.31,1.94,0,0,0.26,-0.23,-0.33,9.79,7,127,38.219017,-85.75338,666,7/25/2017,1:54:28,666,129.4,165.2,1.13,339,2,1,27.77,NAN ,100069.62,44.45,NAN ,105.05
4658,0,0,-1.31,1.94,0,0,0.26,-0.23,-0.33,9.79,7,127,38.219017,-85.75338,696,7/25/2017,1:54:28,696,129.4,165.2,1.13,339,2,1,27.77,NAN ,100069.62,44.45,NAN ,105.05
4686,0,0,-1.31,1.94,0,0,0.27,-0.23,-0.33,9.79,7,127,38.219017,-85.75338,722,7/25/2017,1:54:28,722,129.4,165.2,1.13,339,2,1,27.77,NAN ,100069.62,44.45,NAN ,105.05
4712,0,0,-1.31,1.94,0,0,0.27,-0.23,-0.33,9.79,7,127,38.219017,-85.75338,748,7/25/2017,1:54:28,748,129.4,165.2,1.13,339,2,1,27.77,NAN ,100065.53,44.46,NAN ,105.39
4740,0,0,-1.31,1.94,0,0,0.28,-0.23,-0.33,9.79,7,127,38.219017,-85.75338,777,7/25/2017,1:54:28,777,129.4,165.2,1.13,339,2,1,27.77,NAN ,100065.53,44.46,NAN ,105.39
4767,0,0,-1.31,1.94,0,0,0.28,-0.23,-0.33,9.79,7,127,38.219017,-85.75338,802,7/25/2017,1:54:28,802,129.4,165.2,1.13,351,2,1,27.77,NAN ,100072.73,44.44,NAN ,104.79
4794,0,0,-1.31,1.94,0,0,0.27,-0.23,-0.33,9.79,7,127,38.219017,-85.75338,829,7/25/2017,1:54:28,829,129.4,165.2,1.13,375,2,1,27.77,NAN ,100072.73,44.44,NAN ,104.79
4819,0,0,-1.31,1.94,0,0,0.27,-0.23,-0.33,9.79,7,127,38.219017,-85.75338,855,7/25/2017,1:54:28,855,129.4,165.2,1.13,399,2,1,27.77,NAN ,100072.73,44.44,NAN ,104.79
4845,0,0,-1.31,1.94,0,0,0.26,-0.23,-0.33,9.79,7,127,38.219013,-85.753387,3,7/25/2017,1:54:29,880,126.7,165.2,1.13,423,3,1,27.77,NAN ,100070,44.46,NAN ,105.01
4872,0,0,-1.31,1.94,0,0,0.26,-0.23,-0.33,9.79,7,127,38.219013,-85.753387,31,7/25/2017,1:54:29,908,126.7,165.2,1.13,451,3,1,27.77,NAN ,100070,44.46,NAN ,105.01
4898,0,0,-1.31,1.94,0,0,0.25,-0.23,-0.33,9.79,7,127,38.219013,-85.753387,59,7/25/2017,1:54:29,936,126.7,165.2,1.13,475,3,1,27.77,NAN ,100070,44.46,NAN ,105.01
4928,0,0,-1.31,1.94,0,0,0.26,-0.23,-0.33,9.79,7,127,38.219013,-85.753387,89,7/25/2017,1:54:29,966,126.7,165.2,1.13,503,3,1,27.77,NAN ,100070,44.41,NAN ,105.01
4956,0,0,-1.31,1.94,0,0,0.25,-0.23,-0.33,9.79,7,127,38.219013,-85.753387,116,7/25/2017,1:54:29,993,126.7,165.2,1.13,531,3,1,27.77,NAN ,100070,44.41,NAN ,105.01
4984,0,0,-1.31,1.94,0,0,0.26,-0.23,-0.33,9.79,7,127,38.219013,-85.753387,142,7/25/2017,1:54:29,1019,126.7,165.2,1.13,559,3,1,27.78,NAN ,100069.05,44.42,NAN ,105.1
5010,0,0,-1.31,1.94,0,0,0.25,-0.23,-0.33,9.79,7,127,38.219013,-85.753387,170,7/25/2017,1:54:29,1047,126.7,165.2,1.13,583,3,1,27.78,NAN ,100069.05,44.42,NAN ,105.1
5038,0,0,-1.31,1.94,0,0,0.25,-0.23,-0.33,9.79,7,127,38.219013,-85.753387,199,7/25/2017,1:54:29,1076,126.7,165.2,1.13,611,3,1,27.78,NAN ,100069.05,44.42,NAN ,105.1
5073,0,0,-1.31,1.94,0,0,0.26,-0.23,-0.33,9.79,7,127,38.219013,-85.753387,231,7/25/2017,1:54:29,1108,126.7,165.2,1.13,643,3,1,27.78,NAN ,100068.08,44.42,NAN ,105.18
5099,0,0,-1.31,1.94,0,0,0.25,-0.23,-0.33,9.79,7,127,38.219013,-85.753387,260,7/25/2017,1:54:29,1137,126.7,165.2,1.13,667,3,1,27.78,NAN ,100068.08,44.42,NAN ,105.18
5127,0,0,-1.31,1.94,0,0,0.26,-0.23,-0.33,9.79,7,127,38.219013,-85.753387,22,7/25/2017,1:54:29,22,126.7,175.93,1.1,695,4,1,27.77,NAN ,100065.91,44.45,NAN ,105.36
5156,0,0,-1.31,1.94,0,0,0.26,-0.23,-0.33,9.79,7,127,38.219013,-85.753387,50,7/25/2017,1:54:29,50,126.7,175.93,1.1,719,4,1,27.77,NAN ,100065.91,44.45,NAN ,105.36
5183,0,0,-1.31,1.94,0,0,0.27,-0.23,-0.33,9.79,7,127,38.219013,-85.753387,75,7/25/2017,1:54:29,75,126.7,175.93,1.1,719,4,1,27.78,NAN ,100069.05,44.47,NAN ,105.1
5208,0,0,-1.31,1.94,0,0,0.26,-0.23,-0.33,9.79,7,127,38.219013,-85.753387,103,7/25/2017,1:54:29,104,126.7,175.93,1.1,719,4,1,27.78,NAN ,100069.05,44.47,NAN ,105.1
5238,0,0,-1.31,1.94,0,0,0.25,-0.23,-0.33,9.79,7,127,38.219013,-85.753387,133,7/25/2017,1:54:29,133,126.7,175.93,1.1,719,4,1,27.78,NAN ,100069.05,44.47,NAN ,105.1
5266,0,0,-1.31,1.94,0,0,0.26,-0.23,-0.33,9.79,7,127,38.219013,-85.753387,158,7/25/2017,1:54:29,158,126.7,175.93,1.1,719,4,1,27.78,NAN ,100069.45,44.44,NAN ,105.06
5293,0,0,-1.31,1.94,0,0,0.25,-0.23,-0.33,9.79,7,127,38.219013,-85.753387,185,7/25/2017,1:54:29,185,126.7,175.93,1.1,719,4,1,27.78,NAN ,100069.45,44.44,NAN ,105.06
5319,0,0,-1.31,1.94,0,0,0.26,-0.23,-0.33,9.79,7,127,38.219013,-85.753387,211,7/25/2017,1:54:29,211,126.7,175.93,1.1,719,4,1,27.78,NAN ,100069.45,44.44,NAN ,105.06
5344,0,0,-1.31,1.94,0,0,0.25,-0.23,-0.33,9.79,7,127,38.219013,-85.753387,236,7/25/2017,1:54:29,236,126.7,175.93,1.1,719,4,1,27.78,NAN ,100062.21,44.42,NAN ,105.67
5370,0,0,-1.31,1.94,0,0,0.25,-0.23,-0.33,9.79,7,127,38.219013,-85.753387,264,7/25/2017,1:54:29,264,126.7,175.93,1.1,719,4,1,27.78,NAN ,100062.21,44.42,NAN ,105.67
5398,0,0,-1.31,1.94,0,0,0.24,-0.23,-0.33,9.79,7,127,38.219013,-85.753387,293,7/25/2017,1:54:29,293,126.7,175.93,1.1,719,4,1,27.78,NAN ,100068.08,44.45,NAN ,105.18
5427,0,0,-1.31,1.94,0,0,0.25,-0.23,-0.33,9.79,7,127,38.219013,-85.753387,322,7/25/2017,1:54:29,323,126.7,175.93,1.1,719,4,1,27.78,NAN ,100068.08,44.45,NAN ,105.18
5456,0,0,-1.31,1.94,0,0,0.25,-0.23,-0.33,9.79,7,127,38.219013,-85.753387,349,7/25/2017,1:54:29,349,126.7,175.93,1.1,719,4,1,27.78,NAN ,100068.08,44.45,NAN ,105.18
5482,0,0,-1.31,1.94,0,0,0.26,-0.23,-0.33,9.79,7,127,38.219013,-85.753387,375,7/25/2017,1:54:29,375,126.7,175.93,1.1,719,4,1,27.78,NAN ,100062.62,44.41,NAN ,105.64
5509,0,0,-1.31,1.94,0,0,0.26,-0.23,-0.33,9.79,7,127,38.219013,-85.753387,404,7/25/2017,1:54:29,404,126.7,175.93,1.1,719,4,1,27.78,NAN ,100062.62,44.41,NAN ,105.64
5537,0,0,-1.31,1.94,0,0,0.26,-0.23,-0.33,9.79,7,127,38.219013,-85.753387,432,7/25/2017,1:54:29,432,126.7,175.93,1.1,719,4,1,27.78,NAN ,100066.72,44.46,NAN ,105.29
5567,0,0,-1.31,1.94,0,0,0.26,-0.23,-0.33,9.79,7,127,38.219013,-85.753387,459,7/25/2017,1:54:29,459,126.7,175.93,1.1,719,4,1,27.78,NAN ,100066.72,44.46,NAN ,105.29
5592,0,0,-1.31,1.94,0,0,0.25,-0.23,-0.33,9.79,7,127,38.219013,-85.753387,485,7/25/2017,1:54:29,485,126.7,175.93,1.1,719,4,1,27.78,NAN ,100066.72,44.46,NAN ,105.29
5618,0,0,-1.31,1.94,0,0,0.26,-0.23,-0.33,9.79,7,127,38.219013,-85.753387,510,7/25/2017,1:54:29,510,126.7,175.93,1.1,719,4,1,27.78,NAN ,100073.55,44.45,NAN ,104.72
5645,0,0,-1.31,1.94,0,0,0.25,-0.23,-0.33,9.79,7,127,38.219013,-85.753387,537,7/25/2017,1:54:29,537,126.7,175.93,1.1,719,4,1,27.78,NAN ,100073.55,44.45,NAN ,104.72
5670,0,0,-1.31,1.94,0,0,0.25,-0.23,-0.33,9.79,7,127,38.219013,-85.753387,564,7/25/2017,1:54:29,564,126.7,175.93,1.1,719,4,1,27.78,NAN ,100069.45,44.44,NAN ,105.06
5698,0,0,-1.31,1.94,0,0,0.24,-0.23,-0.33,9.79,7,127,38.219013,-85.753387,593,7/25/2017,1:54:29,593,126.7,175.93,1.1,719,4,1,27.78,NAN ,100069.45,44.44,NAN ,105.06
5726,0,0,-1.31,1.94,0,0,0.25,-0.23,-0.33,9.79,7,127,38.219013,-85.753387,620,7/25/2017,1:54:29,621,126.7,175.93,1.1,719,4,1,27.78,NAN ,100069.45,44.44,NAN ,105.06
5754,0,0,-1.31,1.94,0,0,0.25,-0.23,-0.33,9.79,7,127,38.219013,-85.753387,646,7/25/2017,1:54:29,646,126.7,175.93,1.1,719,4,1,27.78,NAN ,100067.12,44.43,NAN ,105.26
5780,0,0,-1.31,1.94,0,0,0.26,-0.23,-0.33,9.79,7,127,38.219013,-85.753387,674,7/25/2017,1:54:29,674,126.7,175.93,1.1,731,4,1,27.78,NAN ,100067.12,44.43,NAN ,105.26
5813,0,0,-1.31,1.94,0,0,0.26,-0.23,-0.33,9.79,7,127,38.219013,-85.753387,705,7/25/2017,1:54:29,705,126.7,175.93,1.1,763,4,1,27.78,NAN ,100064.39,44.44,NAN ,105.49
5838,0,0,-1.31,1.94,0,0,0.27,-0.23,-0.33,9.79,7,127,38.219013,-85.753387,733,7/25/2017,1:54:29,733,126.7,175.93,1.1,787,4,1,27.78,NAN ,100064.39,44.44,NAN ,105.49
5868,0,0,-1.31,1.94,0,0,0.27,-0.23,-0.33,9.79,7,127,38.21899,-85.753395,19,7/25/2017,1:54:30,760,124.4,175.93,1.1,815,5,1,27.78,NAN ,100064.39,44.44,NAN ,105.49
5893,0,0,-1.31,1.94,0,0,0.26,-0.23,-0.33,9.79,7,127,38.21899,-85.753395,44,7/25/2017,1:54:30,785,124.4,175.93,1.1,843,5,1,27.78,NAN ,100064.8,44.44,NAN ,105.45
5920,0,0,-1.31,1.94,0,0,0.26,-0.23,-0.33,9.79,7,127,38.21899,-85.753395,73,7/25/2017,1:54:30,814,124.4,175.93,1.1,867,5,1,27.78,NAN ,100064.8,44.44,NAN ,105.45
5947,0,0,-1.31,1.94,0,0,0.25,-0.23,-0.33,9.79,7,127,38.21899,-85.753395,101,7/25/2017,1:54:30,842,124.4,175.93,1.1,891,5,1,27.79,NAN ,100067.94,44.41,NAN ,105.19
5975,0,0,-1.31,1.94,0,0,0.26,-0.23,-0.33,9.79,7,127,38.21899,-85.753395,127,7/25/2017,1:54:30,868,124.4,175.93,1.1,919,5,1,27.79,NAN ,100067.94,44.41,NAN ,105.19
6002,0,0,-1.31,1.94,0,0,0.26,-0.23,-0.33,9.79,7,127,38.21899,-85.753395,20,7/25/2017,1:54:30,20,124.4,181.55,1.51,947,6,1,27.79,NAN ,100067.94,44.41,NAN ,105.19
6028,0,0,-1.31,1.94,0,0,0.27,-0.23,-0.33,9.79,7,127,38.21899,-85.753395,48,7/25/2017,1:54:30,48,124.4,181.55,1.51,961,6,1,27.79,NAN ,100069.3,44.41,NAN ,105.07
6058,0,0,-1.31,1.94,0,0,0.26,-0.23,-0.33,9.79,7,127,38.21899,-85.753395,78,7/25/2017,1:54:30,78,124.4,181.55,1.51,961,6,1,27.79,NAN ,100069.3,44.41,NAN ,105.07
6086,0,0,-1.31,1.94,0,0,0.27,-0.23,-0.33,9.79,7,127,38.21899,-85.753395,105,7/25/2017,1:54:30,106,124.4,181.55,1.51,961,6,1,27.78,NAN ,100066.16,44.39,NAN ,105.34
6114,0,0,-1.31,1.94,0,0,0.28,-0.23,-0.33,9.79,7,127,38.21899,-85.753395,131,7/25/2017,1:54:30,131,124.4,181.55,1.51,961,6,1,27.78,NAN ,100066.16,44.39,NAN ,105.34
6140,0,0,-1.31,1.94,0,0,0.29,-0.23,-0.33,9.79,7,127,38.21899,-85.753395,159,7/25/2017,1:54:30,159,124.4,181.55,1.51,961,6,1,27.78,NAN ,100066.16,44.39,NAN ,105.34
6167,0,0,-1.31,1.94,0,0,0.29,-0.23,-0.33,9.79,7,127,38.21899,-85.753395,184,7/25/2017,1:54:30,184,124.4,181.55,1.51,961,6,1,27.78,NAN ,100068.89,44.41,NAN ,105.11
6194,0,0,-1.31,1.94,0,0,0.27,-0.23,-0.33,9.79,7,127,38.21899,-85.753395,211,7/25/2017,1:54:30,211,124.4,181.55,1.51,961,6,1,27.78,NAN ,100068.89,44.41,NAN ,105.11
6219,0,0,-1.31,1.94,0,0,0.27,-0.23,-0.33,9.79,7,127,38.21899,-85.753395,238,7/25/2017,1:54:30,238,124.4,181.55,1.51,961,6,1,27.78,NAN ,100068.89,44.41,NAN ,105.11
6246,0,0,-1.31,1.94,0,0,0.26,-0.23,-0.33,9.79,7,127,38.21899,-85.753395,265,7/25/2017,1:54:30,265,124.4,181.55,1.51,961,6,1,27.79,NAN ,100065.2,44.4,NAN ,105.42
6274,0,0,-1.31,1.94,0,0,0.27,-0.23,-0.33,9.79,7,127,38.21899,-85.753395,291,7/25/2017,1:54:30,292,124.4,181.55,1.51,961,6,1,27.79,NAN ,100065.2,44.4,NAN ,105.42
6300,0,0,-1.31,1.94,0,0,0.26,-0.23,-0.33,9.79,7,127,38.21899,-85.753395,319,7/25/2017,1:54:30,319,124.4,181.55,1.51,961,6,1,27.78,NAN ,100066.16,44.39,NAN ,105.34
6328,0,0,-1.31,1.94,0,0,0.27,-0.23,-0.33,9.79,7,127,38.21899,-85.753395,348,7/25/2017,1:54:30,348,124.4,181.55,1.51,961,6,1,27.78,NAN ,100066.16,44.39,NAN ,105.34
6356,0,0,-1.31,1.94,0,0,0.26,-0.23,-0.33,9.79,7,127,38.21899,-85.753395,375,7/25/2017,1:54:30,375,124.4,181.55,1.51,961,6,1,27.78,NAN ,100066.16,44.39,NAN ,105.34
6383,0,0,-1.31,1.94,0,0,0.27,-0.23,-0.33,9.79,7,127,38.21899,-85.753395,400,7/25/2017,1:54:30,400,124.4,181.55,1.51,961,6,1,27.78,NAN ,100066.16,44.41,NAN ,105.34
6410,0,0,-1.31,1.94,0,0,0.27,-0.23,-0.33,9.79,7,127,38.21899,-85.753395,429,7/25/2017,1:54:30,429,124.4,181.55,1.51,961,6,1,27.78,NAN ,100066.16,44.41,NAN ,105.34
6437,0,0,-1.31,1.94,0,0,0.27,-0.23,-0.33,9.79,7,127,38.21899,-85.753395,457,7/25/2017,1:54:30,457,124.4,181.55,1.51,961,6,1,27.78,NAN ,100067.12,44.39,NAN ,105.26
6465,0,0,-1.31,1.94,0,0,0.27,-0.23,-0.33,9.79,7,127,38.21899,-85.753395,482,7/25/2017,1:54:30,482,124.4,181.55,1.51,961,6,1,27.78,NAN ,100067.12,44.39,NAN ,105.26
6492,0,0,-1.31,1.94,0,0,0.25,-0.23,-0.33,9.79,7,127,38.21899,-85.753395,510,7/25/2017,1:54:30,510,124.4,181.55,1.51,961,6,1,27.78,NAN ,100067.12,44.39,NAN ,105.26
6531,0,0,-1.31,1.94,0,0,0.27,-0.23,-0.33,9.79,7,127,38.21899,-85.753395,549,7/25/2017,1:54:30,549,124.4,181.55,1.51,961,6,1,27.78,NAN ,100064.39,44.4,NAN ,105.49
6868,0,0,-1.31,1.94,0,0,0.28,-0.23,-0.33,9.79,7,127,38.21899,-85.753395,887,7/25/2017,1:54:30,887,124.4,181.55,1.51,1040,6,1,27.79,NAN ,100068.31,44.43,NAN ,105.16
6898,0,0,-1.31,1.94,0,0,0.27,-0.23,-0.33,9.79,7,127,38.21899,-85.753395,918,7/25/2017,1:54:30,918,124.4,181.55,1.51,1068,6,1,27.79,NAN ,100068.31,44.43,NAN ,105.16
6926,0,0,-1.31,1.94,0,0,0.28,-0.23,-0.33,9.79,7,127,38.21899,-85.753395,946,7/25/2017,1:54:30,946,124.4,181.55,1.51,1096,6,2,27.78,NAN ,100068.89,44.43,NAN ,105.11
6955,0,0,-1.31,1.94,0,0,0.28,-0.23,-0.33,9.79,7,127,38.21899,-85.753395,974,7/25/2017,1:54:30,974,124.4,181.55,1.51,1124,6,2,27.78,NAN ,100068.89,44.43,NAN ,105.11
6982,0,0,-1.31,1.94,0,0,0.27,-0.23,-0.33,9.79,7,127,38.218998,-85.753403,4,7/25/2017,1:54:31,4,124.4,188.16,1.15,1148,7,2,27.78,NAN ,100068.89,44.43,NAN ,105.11
7009,0,0,-1.31,1.94,0,0,0.26,-0.23,-0.33,9.79,7,127,38.218998,-85.753403,32,7/25/2017,1:54:31,32,124.4,188.16,1.15,1176,7,2,27.78,NAN ,100068.89,44.39,NAN ,105.11
7062,0,0,-1.31,1.94,0,0,0.27,-0.23,-0.33,9.79,7,127,38.218998,-85.753403,83,7/25/2017,1:54:31,83,124.4,188.16,1.15,1182,7,2,27.78,NAN ,100068.89,44.39,NAN ,105.11
7091,0,0,-1.31,1.94,0,0,0.26,-0.23,-0.33,9.79,7,127,38.218998,-85.753403,113,7/25/2017,1:54:31,113,124.4,188.16,1.15,1182,7,2,27.78,NAN ,100064.8,44.43,NAN ,105.45
7118,0,0,-1.31,1.94,0,0,0.27,-0.23,-0.33,9.79,7,127,38.218998,-85.753403,141,7/25/2017,1:54:31,141,124.4,188.16,1.15,1182,7,2,27.78,NAN ,100064.8,44.43,NAN ,105.45
7145,0,0,-1.31,1.94,0,0,0.26,-0.23,-0.33,9.79,7,127,38.218998,-85.753403,167,7/25/2017,1:54:31,167,124.4,188.16,1.15,1182,7,2,27.78,NAN ,100061.66,44.41,NAN ,105.72
7173,0,0,-1.31,1.94,0,0,0.27,-0.23,-0.33,9.79,7,127,38.218998,-85.753403,194,7/25/2017,1:54:31,194,124.4,188.16,1.15,1182,7,2,27.78,NAN ,100061.66,44.41,NAN ,105.72
7198,0,0,-1.31,1.94,0,0,0.26,-0.23,-0.33,9.79,7,127,38.218998,-85.753403,222,7/25/2017,1:54:31,222,124.4,188.16,1.15,1182,7,2,27.78,NAN ,100061.66,44.41,NAN ,105.72
7226,0,0,-1.31,1.94,0,0,0.28,-0.23,-0.33,9.79,7,127,38.218998,-85.753403,249,7/25/2017,1:54:31,249,124.4,188.16,1.15,1182,7,2,27.78,NAN ,100067.12,44.41,NAN ,105.26
7255,0,0,-1.31,1.94,0,0,0.27,-0.23,-0.33,9.79,7,127,38.218998,-85.753403,276,7/25/2017,1:54:31,276,124.4,188.16,1.15,1182,7,2,27.78,NAN ,100067.12,44.41,NAN ,105.26
7281,0,0,-1.31,1.94,0,0,0.28,-0.23,-0.33,9.79,7,127,38.218998,-85.753403,303,7/25/2017,1:54:31,303,124.4,188.16,1.15,1182,7,2,27.79,NAN ,100067.94,44.41,NAN ,105.19
7308,0,0,-1.31,1.94,0,0,0.27,-0.23,-0.33,9.79,7,127,38.218998,-85.753403,332,7/25/2017,1:54:31,332,124.4,188.16,1.15,1182,7,2,27.79,NAN ,100067.94,44.41,NAN ,105.19
7336,0,0,-1.31,1.94,0,0,0.27,-0.23,-0.33,9.79,7,127,38.218998,-85.753403,360,7/25/2017,1:54:31,360,124.4,188.16,1.15,1182,7,2,27.79,NAN ,100067.94,44.41,NAN ,105.19
7365,0,0,-1.31,1.94,0,0,0.28,-0.23,-0.33,9.79,7,127,38.218998,-85.753403,386,7/25/2017,1:54:31,386,124.4,188.16,1.15,1182,7,2,27.79,NAN ,100072.03,44.43,NAN ,104.84
7391,0,0,-1.31,1.94,0,0,0.26,-0.23,-0.33,9.79,7,127,38.218998,-85.753403,413,7/25/2017,1:54:31,413,124.4,188.16,1.15,1182,7,2,27.79,NAN ,100072.03,44.43,NAN ,104.84
7417,0,0,-1.31,1.94,0,0,0.27,-0.23,-0.33,9.79,7,127,38.218998,-85.753403,438,7/25/2017,1:54:31,438,124.4,188.16,1.15,1182,7,2,27.78,NAN ,100067.53,44.44,NAN ,105.22
7444,0,0,-1.31,1.94,0,0,0.26,-0.23,-0.33,9.79,7,127,38.218998,-85.753403,465,7/25/2017,1:54:31,465,124.4,188.16,1.15,1182,7,2,27.78,NAN ,100067.53,44.44,NAN ,105.22
7469,0,0,-1.31,1.94,0,0,0.27,-0.23,-0.33,9.79,7,127,38.218998,-85.753403,492,7/25/2017,1:54:31,492,124.4,188.16,1.15,1182,7,2,27.78,NAN ,100067.53,44.44,NAN ,105.22
7496,0,0,-1.31,1.94,0,0,0.26,-0.23,-0.33,9.79,7,127,38.218998,-85.753403,520,7/25/2017,1:54:31,520,124.4,188.16,1.15,1182,7,2,27.79,NAN ,100068.31,44.42,NAN ,105.16
7526,0,0,-1.31,1.94,0,0,0.27,-0.23,-0.33,9.79,7,127,38.218998,-85.753403,550,7/25/2017,1:54:31,550,124.4,188.16,1.15,1182,7,2,27.79,NAN ,100068.31,44.42,NAN ,105.16
7554,0,0,-1.31,1.94,0,0,0.27,-0.23,-0.33,9.79,7,127,38.218998,-85.753403,576,7/25/2017,1:54:31,576,124.4,188.16,1.15,1182,7,2,27.79,NAN ,100066.94,44.4,NAN ,105.27
7580,0,0,-1.31,1.94,0,0,0.27,-0.23,-0.33,9.79,7,127,38.218998,-85.753403,602,7/25/2017,1:54:31,602,124.4,188.16,1.15,1182,7,2,27.79,NAN ,100066.94,44.4,NAN ,105.27
7608,0,0,-1.31,1.94,0,0,0.26,-0.23,-0.33,9.79,7,127,38.218998,-85.753403,632,7/25/2017,1:54:31,632,124.4,188.16,1.15,1182,7,2,27.79,NAN ,100066.94,44.4,NAN ,105.27
7639,0,0,-1.31,1.94,0,0,0.27,-0.23,-0.33,9.79,7,127,38.218998,-85.753403,662,7/25/2017,1:54:31,662,124.4,188.16,1.15,1182,7,2,27.79,NAN ,100067.94,44.41,NAN ,105.19
7670,0,0,-1.31,1.94,0,0,0.28,-0.23,-0.33,9.79,7,127,38.218998,-85.753403,692,7/25/2017,1:54:31,692,124.4,188.16,1.15,1182,7,2,27.79,NAN ,100067.94,44.41,NAN ,105.19
7697,0,0,-1.31,1.94,0,0,0.27,-0.23,-0.33,9.79,7,127,38.218998,-85.753403,721,7/25/2017,1:54:31,721,124.4,188.16,1.15,1182,7,2,27.79,NAN ,100065.2,44.43,NAN ,105.42
7725,0,0,-1.31,1.94,0,0,0.28,-0.23,-0.33,9.79,7,127,38.218998,-85.753403,748,7/25/2017,1:54:31,748,124.4,188.16,1.15,1182,7,2,27.79,NAN ,100065.2,44.43,NAN ,105.42
7754,0,0,-1.31,1.94,0,0,0.27,-0.23,-0.33,9.79,7,127,38.218998,-85.753403,775,7/25/2017,1:54:31,775,124.4,188.16,1.15,1182,7,2,27.79,NAN ,100065.2,44.43,NAN ,105.42
7779,0,0,-1.31,1.94,0,0,0.28,-0.23,-0.33,9.79,7,127,38.218998,-85.753403,802,7/25/2017,1:54:31,802,124.4,188.16,1.15,1202,7,2,27.79,NAN ,100064.62,44.43,NAN ,105.47
7810,0,0,-1.31,1.94,0,0,0.28,-0.23,-0.33,9.79,7,127,38.218998,-85.753403,832,7/25/2017,1:54:31,832,124.4,188.16,1.15,1234,7,2,27.79,NAN ,100064.62,44.43,NAN ,105.47
7837,0,0,-1.31,1.94,0,0,0.27,-0.23,-0.33,9.79,7,127,38.21899,-85.753395,6,7/25/2017,1:54:32,861,122.5,188.16,1.15,1258,8,2,27.79,NAN ,100071.05,44.42,NAN ,104.93
7865,0,0,-1.31,1.94,0,0,0.28,-0.23,-0.33,9.79,7,127,38.21899,-85.753395,31,7/25/2017,1:54:32,886,122.5,188.16,1.15,1286,8,2,27.79,NAN ,100071.05,44.42,NAN ,104.93
7892,0,0,-1.31,1.94,0,0,0.27,-0.23,-0.33,9.79,7,127,38.21899,-85.753395,58,7/25/2017,1:54:32,913,122.5,188.16,1.15,1314,8,2,27.79,NAN ,100071.05,44.42,NAN ,104.93
7918,0,0,-1.31,1.94,0,0,0.27,-0.23,-0.33,9.79,7,127,38.21899,-85.753395,85,7/25/2017,1:54:32,940,122.5,188.16,1.15,1338,8,2,27.79,NAN ,100068.31,44.44,NAN ,105.16
7946,0,0,-1.31,1.94,0,0,0.26,-0.23,-0.33,9.79,7,127,38.21899,-85.753395,114,7/25/2017,1:54:32,969,122.5,188.16,1.15,1362,8,2,27.79,NAN ,100068.31,44.44,NAN ,105.16
7974,0,0,-1.31,1.94,0,0,0.28,-0.23,-0.33,9.79,7,127,38.21899,-85.753395,4,7/25/2017,1:54:32,4,122.5,163.32,1.03,1390,9,2,27.79,NAN ,100065.2,44.44,NAN ,105.42
8000,0,0,-1.31,1.94,0,0,0.27,-0.23,-0.33,9.79,7,127,38.21899,-85.753395,30,7/25/2017,1:54:32,30,122.5,163.32,1.03,1418,9,2,27.79,NAN ,100065.2,44.44,NAN ,105.42
8028,0,0,-1.31,1.94,0,0,0.28,-0.23,-0.33,9.79,7,127,38.21899,-85.753395,59,7/25/2017,1:54:32,59,122.5,163.32,1.03,1424,9,2,27.79,NAN ,100065.2,44.44,NAN ,105.42
8056,0,0,-1.31,1.94,0,0,0.27,-0.23,-0.33,9.79,7,127,38.21899,-85.753395,88,7/25/2017,1:54:32,88,122.5,163.32,1.03,1424,9,2,27.79,NAN ,100071.45,44.45,NAN ,104.89
8086,0,0,-1.31,1.94,0,0,0.27,-0.23,-0.33,9.79,7,127,38.21899,-85.753395,118,7/25/2017,1:54:32,118,122.5,163.32,1.03,1424,9,2,27.79,NAN ,100071.45,44.45,NAN ,104.89
8115,0,0,-1.31,1.94,0,0,0.26,-0.23,-0.33,9.79,7,127,38.21899,-85.753395,144,7/25/2017,1:54:32,144,122.5,163.32,1.03,1424,9,2,27.79,NAN ,100065.58,44.44,NAN ,105.39
8140,0,0,-1.31,1.94,0,0,0.25,-0.23,-0.33,9.79,7,127,38.21899,-85.753395,170,7/25/2017,1:54:32,170,122.5,163.32,1.03,1424,9,2,27.79,NAN ,100065.58,44.44,NAN ,105.39
8168,0,0,-1.31,1.94,0,0,0.26,-0.23,-0.33,9.79,7,127,38.21899,-85.753395,199,7/25/2017,1:54:32,199,122.5,163.32,1.03,1424,9,2,27.79,NAN ,100065.58,44.44,NAN ,105.39
8196,0,0,-1.31,1.94,0,0,0.25,-0.23,-0.33,9.79,7,127,38.21899,-85.753395,228,7/25/2017,1:54:32,228,122.5,163.32,1.03,1424,9,2,27.79,NAN ,100061.48,44.44,NAN ,105.73
8225,0,0,-1.31,1.94,0,0,0.26,-0.23,-0.33,9.79,7,127,38.21899,-85.753395,258,7/25/2017,1:54:32,258,122.5,163.32,1.03,1424,9,2,27.79,NAN ,100061.48,44.44,NAN ,105.73
8254,0,0,-1.31,1.94,0,0,0.25,-0.23,-0.33,9.79,7,127,38.21899,-85.753395,284,7/25/2017,1:54:32,284,122.5,163.32,1.03,1424,9,2,27.79,NAN ,100070.08,44.43,NAN ,105.01
8281,0,0,-1.31,1.94,0,0,0.26,-0.23,-0.33,9.79,7,127,38.21899,-85.753395,310,7/25/2017,1:54:32,310,122.5,163.32,1.03,1424,9,2,27.79,NAN ,100070.08,44.43,NAN ,105.01
8308,0,0,-1.31,1.94,0,0,0.26,-0.23,-0.33,9.79,7,127,38.21899,-85.753395,339,7/25/2017,1:54:32,339,122.5,163.32,1.03,1424,9,2,27.79,NAN ,100070.08,44.43,NAN ,105.01
8339,0,0,-1.31,1.94,0,0,0.27,-0.23,-0.33,9.79,7,127,38.21899,-85.753395,369,7/25/2017,1:54:32,369,122.5,163.32,1.03,1424,9,2,27.79,NAN ,100065.02,44.43,NAN ,105.43
8370,0,0,-1.31,1.94,0,0,0.28,-0.23,-0.33,9.79,7,127,38.21899,-85.753395,400,7/25/2017,1:54:32,400,122.5,163.32,1.03,1424,9,2,27.79,NAN ,100065.02,44.43,NAN ,105.43
8396,0,0,-1.31,1.94,0,0,0.27,-0.23,-0.33,9.79,7,127,38.21899,-85.753395,428,7/25/2017,1:54:32,428,122.5,163.32,1.03,1424,9,2,27.79,NAN ,100065.98,44.4,NAN ,105.35
8425,0,0,-1.31,1.94,0,0,0.28,-0.23,-0.33,9.79,7,127,38.21899,-85.753395,456,7/25/2017,1:54:32,456,122.5,163.32,1.03,1424,9,2,27.79,NAN ,100065.98,44.4,NAN ,105.35
8454,0,0,-1.31,1.94,0,0,0.27,-0.23,-0.33,9.79,7,127,38.21899,-85.753395,484,7/25/2017,1:54:32,484,122.5,163.32,1.03,1424,9,2,27.79,NAN ,100065.98,44.4,NAN ,105.35
8480,0,0,-1.31,1.94,0,0,0.27,-0.23,-0.33,9.79,7,127,38.21899,-85.753395,510,7/25/2017,1:54:32,510,122.5,163.32,1.03,1424,9,2,27.79,NAN ,100068.72,44.45,NAN ,105.12
8507,0,0,-1.31,1.94,0,0,0.27,-0.23,-0.33,9.79,7,127,38.21899,-85.753395,539,7/25/2017,1:54:32,539,122.5,163.32,1.03,1424,9,2,27.79,NAN ,100068.72,44.45,NAN ,105.12
8536,0,0,-1.31,1.94,0,0,0.28,-0.23,-0.33,9.79,7,127,38.21899,-85.753395,568,7/25/2017,1:54:32,568,122.5,163.32,1.03,1424,9,2,27.79,NAN ,100066.94,44.43,NAN ,105.27
8565,0,0,-1.31,1.94,0,0,0.29,-0.23,-0.33,9.79,7,127,38.21899,-85.753395,594,7/25/2017,1:54:32,594,122.5,163.32,1.03,1424,9,2,27.79,NAN ,100066.94,44.43,NAN ,105.27
8592,0,0,-1.31,1.94,0,0,0.27,-0.23,-0.33,9.79,7,127,38.21899,-85.753395,621,7/25/2017,1:54:32,621,122.5,163.32,1.03,1424,9,2,27.79,NAN ,100066.94,44.43,NAN ,105.27
8617,0,0,-1.31,1.94,0,0,0.27,-0.23,-0.33,9.79,7,127,38.21899,-85.753395,648,7/25/2017,1:54:32,648,122.5,163.32,1.03,1424,9,2,27.79,NAN ,100064.62,44.45,NAN ,105.47
8644,0,0,-1.31,1.94,0,0,0.26,-0.23,-0.33,9.79,7,127,38.21899,-85.753395,674,7/25/2017,1:54:32,674,122.5,163.32,1.03,1424,9,2,27.79,NAN ,100064.62,44.45,NAN ,105.47
8672,0,0,-1.31,1.94,0,0,0.27,-0.23,-0.33,9.79,7,127,38.21899,-85.753395,701,7/25/2017,1:54:32,701,122.5,163.32,1.03,1424,9,2,27.79,NAN ,100064.22,44.43,NAN ,105.5
8698,0,0,-1.31,1.94,0,0,0.26,-0.23,-0.33,9.79,7,127,38.21899,-85.753395,729,7/25/2017,1:54:32,729,122.5,163.32,1.03,1424,9,2,27.79,NAN ,100064.22,44.43,NAN ,105.5
8727,0,0,-1.31,1.94,0,0,0.27,-0.23,-0.33,9.79,7,127,38.21899,-85.753395,758,7/25/2017,1:54:32,758,122.5,163.32,1.03,1424,9,2,27.79,NAN ,100064.22,44.43,NAN ,105.5
8755,0,0,-1.31,1.94,0,0,0.27,-0.23,-0.33,9.79,7,127,38.21899,-85.753395,787,7/25/2017,1:54:32,787,122.5,163.32,1.03,1424,9,2,27.79,NAN ,100069.12,44.43,NAN ,105.09
8783,0,0,-1.31,1.94,0,0,0.28,-0.23,-0.33,9.79,7,127,38.21899,-85.753395,813,7/25/2017,1:54:32,813,122.5,163.32,1.03,1440,9,2,27.79,NAN ,100069.12,44.43,NAN ,105.09
8811,0,0,-1.31,1.94,0,0,0.28,-0.23,-0.33,9.79,7,127,38.21899,-85.753395,840,7/25/2017,1:54:32,840,122.5,163.32,1.03,1468,9,2,27.79,NAN ,100070.08,44.43,NAN ,105.01
8837,0,0,-1.31,1.94,0,0,0.29,-0.23,-0.33,9.79,7,127,38.21899,-85.753395,868,7/25/2017,1:54:32,869,122.5,163.32,1.03,1492,9,2,27.79,NAN ,100070.08,44.43,NAN ,105.01
8866,0,0,-1.31,1.94,0,-0.01,0.29,-0.23,-0.33,9.79,7,127,38.21899,-85.753403,20,7/25/2017,1:54:33,896,122.1,163.32,1.03,1520,10,2,27.79,NAN ,100070.08,44.43,NAN ,105.01
8892,0,0,-1.31,1.94,0,0,0.27,-0.23,-0.33,9.79,7,127,38.21899,-85.753403,45,7/25/2017,1:54:33,921,122.1,163.32,1.03,1544,10,2,27.79,NAN ,100068.31,44.45,NAN ,105.16
8918,0,0,-1.31,1.94,0,0,0.28,-0.23,-0.33,9.79,7,127,38.21899,-85.753403,72,7/25/2017,1:54:33,949,122.1,163.32,1.03,1568,10,2,27.79,NAN ,100068.31,44.45,NAN ,105.16
8946,0,0,-1.31,1.94,0,0,0.26,-0.23,-0.33,9.79,7,127,38.21899,-85.753403,102,7/25/2017,1:54:33,978,122.1,163.32,1.03,1596,10,2,27.79,NAN ,100071.45,44.44,NAN ,104.89
8975,0,0,-1.31,1.94,0,0,0.27,-0.23,-0.33,9.79,7,127,38.21899,-85.753403,130,7/25/2017,1:54:33,1006,122.1,163.32,1.03,1624,10,2,27.79,NAN ,100071.45,44.44,NAN ,104.89
9004,0,0,-1.31,1.94,0,0,0.26,-0.23,-0.33,9.79,7,127,38.21899,-85.753403,20,7/25/2017,1:54:33,20,122.1,170.72,0.63,1652,11,2,27.79,NAN ,100071.45,44.44,NAN ,104.89
9031,0,0,-1.31,1.94,0,0,0.28,-0.23,-0.33,9.79,7,127,38.21899,-85.753403,46,7/25/2017,1:54:33,46,122.1,170.72,0.63,1666,11,2,27.79,NAN ,100065.98,44.4,NAN ,105.35
9057,0,0,-1.31,1.94,0,0,0.28,-0.23,-0.33,9.79,7,127,38.21899,-85.753403,74,7/25/2017,1:54:33,74,122.1,170.72,0.63,1666,11,2,27.79,NAN ,100065.98,44.4,NAN ,105.35
9089,0,0,-1.31,1.94,0,0,0.26,-0.23,-0.33,9.79,7,127,38.21899,-85.753403,105,7/25/2017,1:54:33,105,122.1,170.72,0.63,1666,11,2,27.79,NAN ,100061.89,44.43,NAN ,105.7
9119,0,0,-1.31,1.94,0,0,0.28,-0.23,-0.33,9.79,7,127,38.21899,-85.753403,135,7/25/2017,1:54:33,135,122.1,170.72,0.63,1666,11,2,27.79,NAN ,100061.89,44.43,NAN ,105.7
9147,0,0,-1.31,1.94,0,0,0.26,-0.23,-0.33,9.79,7,127,38.21899,-85.753403,164,7/25/2017,1:54:33,164,122.1,170.72,0.63,1666,11,2,27.79,NAN ,100061.89,44.43,NAN ,105.7
9175,0,0,-1.31,1.94,0,0,0.28,-0.23,-0.33,9.79,7,127,38.21899,-85.753403,193,7/25/2017,1:54:33,193,122.1,170.72,0.63,1666,11,2,27.79,NAN ,100066.39,44.42,NAN ,105.32
9204,0,0,-1.31,1.94,0,0,0.28,-0.23,-0.33,9.79,7,127,38.21899,-85.753403,220,7/25/2017,1:54:33,220,122.1,170.72,0.63,1666,11,2,27.79,NAN ,100066.39,44.42,NAN ,105.32
9232,0,0,-1.31,1.94,0,0,0.28,-0.23,-0.33,9.79,7,127,38.21899,-85.753403,247,7/25/2017,1:54:33,247,122.1,170.72,0.63,1666,11,2,27.79,NAN ,100067.76,44.42,NAN ,105.2
9257,0,0,-1.31,1.94,0,0,0.27,-0.23,-0.33,9.79,7,127,38.21899,-85.753403,275,7/25/2017,1:54:33,275,122.1,170.72,0.63,1666,11,2,27.79,NAN ,100067.76,44.42,NAN ,105.2
9287,0,0,-1.31,1.94,0,0,0.28,-0.23,-0.33,9.79,7,127,38.21899,-85.753403,304,7/25/2017,1:54:33,304,122.1,170.72,0.63,1666,11,2,27.79,NAN ,100067.76,44.42,NAN ,105.2
9315,0,0,-1.31,1.94,0,0,0.28,-0.23,-0.33,9.79,7,127,38.21899,-85.753403,330,7/25/2017,1:54:33,330,122.1,170.72,0.63,1666,11,2,27.79,NAN ,100067.76,44.44,NAN ,105.2
9340,0,0,-1.31,1.94,0,0,0.27,-0.23,-0.33,9.79,7,127,38.21899,-85.753403,356,7/25/2017,1:54:33,356,122.1,170.72,0.63,1666,11,2,27.79,NAN ,100067.76,44.44,NAN ,105.2
9368,0,0,-1.31,1.94,0,0,0.28,-0.23,-0.33,9.79,7,127,38.21899,-85.753403,385,7/25/2017,1:54:33,385,122.1,170.72,0.63,1666,11,2,27.79,NAN ,100066.39,44.42,NAN ,105.32
9395,0,0,-1.31,1.94,0,0,0.27,-0.23,-0.33,9.79,7,127,38.21899,-85.753403,413,7/25/2017,1:54:33,413,122.1,170.72,0.63,1666,11,2,27.79,NAN ,100066.39,44.42,NAN ,105.32
9424,0,0,-1.31,1.94,0,0,0.27,-0.23,-0.33,9.79,7,127,38.21899,-85.753403,441,7/25/2017,1:54:33,441,122.1,170.72,0.63,1666,11,2,27.79,NAN ,100066.39,44.42,NAN ,105.32
9453,0,0,-1.31,1.94,0,0,0.27,-0.23,-0.33,9.79,7,127,38.21899,-85.753403,468,7/25/2017,1:54:33,468,122.1,170.72,0.63,1666,11,2,27.79,NAN ,100069.3,44.4,NAN ,105.07
9478,0,0,-1.31,1.94,0,0,0.28,-0.23,-0.33,9.79,7,127,38.21899,-85.753403,495,7/25/2017,1:54:33,495,122.1,170.72,0.63,1666,11,2,27.79,NAN ,100069.3,44.4,NAN ,105.07
9506,0,0,-1.31,1.94,0,0,0.27,-0.23,-0.33,9.79,7,127,38.21899,-85.753403,524,7/25/2017,1:54:33,524,122.1,170.72,0.63,1666,11,2,27.78,NAN ,100067.53,44.44,NAN ,105.22
9535,0,0,-1.31,1.94,0,0,0.28,-0.23,-0.33,9.79,7,127,38.21899,-85.753403,552,7/25/2017,1:54:33,553,122.1,170.72,0.63,1666,11,2,27.78,NAN ,100067.53,44.44,NAN ,105.22
9563,0,0,-1.31,1.94,0,0,0.28,-0.23,-0.33,9.79,7,127,38.21899,-85.753403,578,7/25/2017,1:54:33,578,122.1,170.72,0.63,1666,11,2,27.78,NAN ,100067.53,44.44,NAN ,105.22
9590,0,0,-1.31,1.94,0,0,0.27,-0.23,-0.33,9.79,7,127,38.21899,-85.753403,605,7/25/2017,1:54:33,605,122.1,170.72,0.63,1666,11,2,27.79,NAN ,100071.05,44.44,NAN ,104.93
9616,0,0,-1.31,1.94,0,0,0.27,-0.23,-0.33,9.79,7,127,38.21899,-85.753403,631,7/25/2017,1:54:33,631,122.1,170.72,0.63,1666,11,2,27.79,NAN ,100071.05,44.44,NAN ,104.93
9643,0,0,-1.31,1.94,0,0,0.26,-0.23,-0.33,9.79,7,127,38.21899,-85.753403,659,7/25/2017,1:54:33,659,122.1,170.72,0.63,1666,11,2,27.79,NAN ,100066.56,44.45,NAN ,105.3
9669,0,0,-1.31,1.94,0,0,0.27,-0.23,-0.33,9.79,7,127,38.21899,-85.753403,685,7/25/2017,1:54:33,685,122.1,170.72,0.63,1666,11,2,27.79,NAN ,100066.56,44.45,NAN ,105.3
9696,0,0,-1.31,1.94,0,0,0.26,-0.23,-0.33,9.79,7,127,38.21899,-85.753403,714,7/25/2017,1:54:33,714,122.1,170.72,0.63,1666,11,2,27.79,NAN ,100066.56,44.45,NAN ,105.3
9725,0,0,-1.31,1.94,0,0,0.27,-0.23,-0.33,9.79,7,127,38.21899,-85.753403,743,7/25/2017,1:54:33,744,122.1,170.72,0.63,1666,11,2,27.78,NAN ,100067.53,44.43,NAN ,105.22
9754,0,0,-1.31,1.94,0,0,0.27,-0.23,-0.33,9.79,7,127,38.21899,-85.753403,772,7/25/2017,1:54:33,772,122.1,170.72,0.63,1666,11,2,27.78,NAN ,100067.53,44.43,NAN ,105.22
9783,0,0,-1.31,1.94,0,0,0.28,-0.23,-0.33,9.79,7,127,38.21899,-85.753403,800,7/25/2017,1:54:33,800,122.1,170.72,0.63,1682,11,2,27.78,NAN ,100068.89,44.41,NAN ,105.11
9813,0,0,-1.31,1.94,0,0,0.28,-0.23,-0.33,9.79,7,127,38.21899,-85.753403,828,7/25/2017,1:54:33,828,122.1,170.72,0.63,1710,11,2,27.78,NAN ,100068.89,44.41,NAN ,105.11
9842,0,0,-1.31,1.94,0,0,0.27,-0.23,-0.33,9.79,7,127,38.21899,-85.753403,857,7/25/2017,1:54:33,857,122.1,170.72,0.63,1738,11,2,27.78,NAN ,100068.89,44.41,NAN ,105.11
9870,0,0,-1.31,1.94,0,0,0.28,-0.23,-0.33,9.79,7,127,38.218987,-85.753403,19,7/25/2017,1:54:34,886,121.3,170.72,0.63,1766,12,2,27.78,NAN ,100064.8,44.43,NAN ,105.45
9896,0,0,-1.31,1.94,0,0,0.26,-0.23,-0.33,9.79,7,127,38.218987,-85.753403,48,7/25/2017,1:54:34,914,121.3,170.72,0.63,1790,12,2,27.78,NAN ,100064.8,44.43,NAN ,105.45
9926,0,0,-1.31,1.94,0,0,0.27,-0.23,-0.33,9.79,7,127,38.218987,-85.753403,77,7/25/2017,1:54:34,943,121.3,170.72,0.63,1818,12,2,27.79,NAN ,100063.84,44.43,NAN ,105.53
9954,0,0,-1.31,1.94,0,0,0.26,-0.23,-0.33,9.79,7,127,38.218987,-85.753403,106,7/25/2017,1:54:34,972,121.3,170.72,0.63,1846,12,2,27.79,NAN ,100063.84,44.43,NAN ,105.53
9982,0,0,-1.31,1.94,0,0,0.26,-0.23,-0.33,9.79,7,127,38.218987,-85.753403,131,7/25/2017,1:54:34,997,121.3,170.72,0.63,1874,12,2,27.79,NAN ,100063.84,44.43,NAN ,105.53
10009,0,0,-1.31,1.94,0,0,0.27,-0.23,-0.33,9.79,7,127,38.218987,-85.753403,159,7/25/2017,1:54:34,1025,121.3,170.72,0.63,1898,12,2,27.79,NAN ,100069.3,44.43,NAN ,105.07
10036,0,0,-1.31,1.94,0,0,0.28,-0.23,-0.33,9.79,7,127,38.218987,-85.753403,187,7/25/2017,1:54:34,1053,121.3,170.72,0.63,1926,12,2,27.79,NAN ,100069.3,44.43,NAN ,105.07
10065,0,0,-1.31,1.94,0,0,0.28,-0.23,-0.33,9.79,7,127,38.218987,-85.753403,214,7/25/2017,1:54:34,1080,121.3,170.72,0.63,1954,12,2,27.79,NAN ,100062.47,44.44,NAN ,105.65
10090,0,0,-1.31,1.94,0,0,0.26,-0.23,-0.33,9.79,7,127,38.218987,-85.753403,240,7/25/2017,1:54:34,1106,121.3,170.72,0.63,1978,12,2,27.79,NAN ,100062.47,44.44,NAN ,105.65
10116,0,0,-1.31,1.94,0,0,0.27,-0.23,-0.33,9.79,7,127,38.218987,-85.753403,266,7/25/2017,1:54:34,1132,121.3,170.72,0.63,2002,12,2,27.79,NAN ,100062.47,44.44,NAN ,105.65
10143,0,0,-1.31,1.94,0,0,0.26,-0.23,-0.33,9.79,7,127,38.218987,-85.753403,21,7/25/2017,1:54:34,21,121.3,164.37,0.53,2030,13,2,27.78,NAN ,100064.8,44.44,NAN ,105.45
10171,0,0,-1.31,1.94,0,0,0.27,-0.23,-0.33,9.79,7,127,38.218987,-85.753403,47,7/25/2017,1:54:34,47,121.3,164.37,0.53,2048,13,2,27.78,NAN ,100064.8,44.44,NAN ,105.45
10198,0,0,-1.31,1.94,0,0,0.26,-0.23,-0.33,9.79,7,127,38.218987,-85.753403,75,7/25/2017,1:54:34,76,121.3,164.37,0.53,2048,13,2,27.79,NAN ,100064.22,44.42,NAN ,105.5
10225,0,0,-1.31,1.94,0,0,0.27,-0.23,-0.33,9.79,7,127,38.218987,-85.753403,104,7/25/2017,1:54:34,104,121.3,164.37,0.53,2048,13,2,27.79,NAN ,100064.22,44.42,NAN ,105.5
10254,0,0,-1.31,1.94,0,0,0.27,-0.23,-0.33,9.79,7,127,38.218987,-85.753403,132,7/25/2017,1:54:34,132,121.3,164.37,0.53,2048,13,2,27.79,NAN ,100064.22,44.42,NAN ,105.5
10283,0,0,-1.31,1.94,0,0,0.27,-0.23,-0.33,9.79,7,127,38.218987,-85.753403,160,7/25/2017,1:54:34,160,121.3,164.37,0.53,2048,13,2,27.79,NAN ,100068.31,44.4,NAN ,105.16
10310,0,0,-1.31,1.94,0,0,0.28,-0.23,-0.33,9.79,7,127,38.218987,-85.753403,186,7/25/2017,1:54:34,186,121.3,164.37,0.53,2048,13,2,27.79,NAN ,100068.31,44.4,NAN ,105.16
10337,0,0,-1.31,1.94,0,0,0.29,-0.23,-0.33,9.79,7,127,38.218987,-85.753403,215,7/25/2017,1:54:34,215,121.3,164.37,0.53,2048,13,2,27.79,NAN ,100066.94,44.39,NAN ,105.27
10365,0,0,-1.31,1.94,0,0,0.29,-0.23,-0.33,9.79,7,127,38.218987,-85.753403,241,7/25/2017,1:54:34,241,121.3,164.37,0.53,2048,13,2,27.79,NAN ,100066.94,44.39,NAN ,105.27
10390,0,0,-1.31,1.94,0,0,0.28,-0.23,-0.33,9.79,7,127,38.218987,-85.753403,266,7/25/2017,1:54:34,266,121.3,164.37,0.53,2048,13,2,27.79,NAN ,100066.94,44.39,NAN ,105.27
10417,0,0,-1.31,1.94,0,0,0.28,-0.23,-0.33,9.79,7,127,38.218987,-85.753403,295,7/25/2017,1:54:34,295,121.3,164.37,0.53,2048,13,2,27.78,NAN ,100068.89,44.4,NAN ,105.11
10444,0,0,-1.31,1.94,0,0,0.27,-0.23,-0.33,9.79,7,127,38.218987,-85.753403,324,7/25/2017,1:54:34,324,121.3,164.37,0.53,2048,13,2,27.78,NAN ,100068.89,44.4,NAN ,105.11
10474,0,0,-1.31,1.94,0,0,0.28,-0.23,-0.33,9.79,7,127,38.218987,-85.753403,354,7/25/2017,1:54:34,354,121.3,164.37,0.53,2048,13,2,27.78,NAN ,100068.89,44.43,NAN ,105.11
10503,0,0,-1.31,1.94,0,0,0.28,-0.23,-0.33,9.79,7,127,38.218987,-85.753403,381,7/25/2017,1:54:34,381,121.3,164.37,0.53,2048,13,2,27.78,NAN ,100068.89,44.43,NAN ,105.11
10535,0,0,-1.31,1.94,0,0,0.28,-0.23,-0.33,9.79,7,127,38.218987,-85.753403,414,7/25/2017,1:54:34,414,121.3,164.37,0.53,2048,13,2,27.78,NAN ,100068.89,44.43,NAN ,105.11
10568,0,0,-1.31,1.94,0,0,0.29,-0.23,-0.33,9.79,7,127,38.218987,-85.753403,445,7/25/2017,1:54:34,445,121.3,164.37,0.53,2048,13,2,27.79,NAN ,100058.75,44.44,NAN ,105.96
10596,0,0,-1.31,1.94,0,0,0.28,-0.23,-0.33,9.79,7,127,38.218987,-85.753403,474,7/25/2017,1:54:34,474,121.3,164.37,0.53,2048,13,2,27.79,NAN ,100058.75,44.44,NAN ,105.96
10625,0,0,-1.31,1.94,0,0,0.28,-0.23,-0.33,9.79,7,127,38.218987,-85.753403,504,7/25/2017,1:54:34,504,121.3,164.37,0.53,2048,13,2,27.79,NAN ,100070.08,44.43,NAN ,105.01
10653,0,0,-1.31,1.94,0,0,0.27,-0.23,-0.33,9.79,7,127,38.218987,-85.753403,531,7/25/2017,1:54:34,531,121.3,164.37,0.53,2048,13,2,27.79,NAN ,100070.08,44.43,NAN ,105.01
10681,0,0,-1.31,1.94,0,0,0.28,-0.23,-0.33,9.79,7,127,38.218987,-85.753403,557,7/25/2017,1:54:34,557,121.3,164.37,0.53,2048,13,2,27.79,NAN ,100070.08,44.43,NAN ,105.01
10708,0,0,-1.31,1.94,0,0,0.27,-0.23,-0.33,9.79,7,127,38.218987,-85.753403,585,7/25/2017,1:54:34,585,121.3,164.37,0.53,2048,13,2,27.79,NAN ,100068.31,44.39,NAN ,105.16
10735,0,0,-1.31,1.94,0,0,0.28,-0.23,-0.33,9.79,7,127,38.218987,-85.753403,614,7/25/2017,1:54:34,614,121.3,164.37,0.53,2048,13,2,27.79,NAN ,100068.31,44.39,NAN ,105.16
10765,0,0,-1.31,1.94,0,0,0.28,-0.23,-0.33,9.79,7,127,38.218987,-85.753403,641,7/25/2017,1:54:34,641,121.3,164.37,0.53,2056,13,2,27.79,NAN ,100065.58,44.42,NAN ,105.39
10791,0,0,-1.31,1.94,0,0,0.27,-0.23,-0.33,9.79,7,127,38.218987,-85.753403,667,7/25/2017,1:54:34,667,121.3,164.37,0.53,2084,13,2,27.79,NAN ,100065.58,44.42,NAN ,105.39
10816,0,0,-1.31,1.94,0,0,0.28,-0.23,-0.33,9.79,7,127,38.218987,-85.753403,693,7/25/2017,1:54:34,693,121.3,164.37,0.53,2108,13,2,27.79,NAN ,100065.58,44.42,NAN ,105.39
10844,0,0,-1.31,1.94,0,0,0.26,-0.23,-0.33,9.79,7,127,38.218987,-85.75341,6,7/25/2017,1:54:35,723,121,164.37,0.53,2132,14,2,27.79,NAN ,100071.05,44.39,NAN ,104.93
10873,0,0,-1.31,1.94,0,0,0.27,-0.23,-0.33,9.79,7,127,38.218987,-85.75341,33,7/25/2017,1:54:35,750,121,164.37,0.53,2160,14,2,27.79,NAN ,100071.05,44.39,NAN ,104.93
10900,0,0,-1.31,1.94,0,0,0.27,-0.23,-0.33,9.79,7,127,38.218987,-85.75341,59,7/25/2017,1:54:35,776,121,164.37,0.53,2188,14,2,27.79,NAN ,100066.94,44.38,NAN ,105.27
10927,0,0,-1.31,1.94,0,0,0.28,-0.23,-0.33,9.79,7,127,38.218987,-85.75341,88,7/25/2017,1:54:35,805,121,164.37,0.53,2212,14,2,27.79,NAN ,100066.94,44.38,NAN ,105.27
10954,0,0,-1.31,1.94,0,0,0.28,-0.23,-0.33,9.79,7,127,38.218987,-85.75341,116,7/25/2017,1:54:35,833,121,164.37,0.53,2240,14,2,27.79,NAN ,100066.94,44.38,NAN ,105.27
10984,0,0,-1.31,1.94,0,0,0.28,-0.23,-0.33,9.79,7,127,38.218987,-85.75341,22,7/25/2017,1:54:35,23,121,195.46,0.45,2268,15,2,27.79,NAN ,100069.3,44.39,NAN ,105.07
11013,0,0,-1.31,1.94,0,0,0.28,-0.23,-0.33,9.79,7,127,38.218987,-85.75341,48,7/25/2017,1:54:35,48,121,195.46,0.45,2290,15,2,27.79,NAN ,100069.3,44.39,NAN ,105.07
11039,0,0,-1.31,1.94,0,0,0.26,-0.23,-0.33,9.79,7,127,38.218987,-85.75341,74,7/25/2017,1:54:35,74,121,195.46,0.45,2290,15,2,27.79,NAN ,100069.3,44.41,NAN ,105.07
11066,0,0,-1.31,1.94,0,0,0.27,-0.23,-0.33,9.79,7,127,38.218987,-85.75341,103,7/25/2017,1:54:35,103,121,195.46,0.45,2290,15,2,27.79,NAN ,100069.3,44.41,NAN ,105.07
11094,0,0,-1.31,1.94,0,0,0.26,-0.23,-0.33,9.79,7,127,38.218987,-85.75341,132,7/25/2017,1:54:35,132,121,195.46,0.45,2290,15,2,27.79,NAN ,100069.3,44.41,NAN ,105.07
11124,0,0,-1.31,1.94,0,0,0.27,-0.23,-0.33,9.79,7,127,38.218987,-85.75341,162,7/25/2017,1:54:35,162,121,195.46,0.45,2290,15,2,27.79,NAN ,100065.2,44.43,NAN ,105.42
11152,0,0,-1.31,1.94,0,0,0.27,-0.23,-0.33,9.79,7,127,38.218987,-85.75341,189,7/25/2017,1:54:35,189,121,195.46,0.45,2290,15,2,27.79,NAN ,100065.2,44.43,NAN ,105.42
11179,0,0,-1.31,1.94,0,0,0.27,-0.23,-0.33,9.79,7,127,38.218987,-85.75341,215,7/25/2017,1:54:35,215,121,195.46,0.45,2290,15,2,27.79,NAN ,100066.94,44.43,NAN ,105.27
11206,0,0,-1.31,1.94,0,0,0.27,-0.23,-0.33,9.79,7,127,38.218987,-85.75341,244,7/25/2017,1:54:35,244,121,195.46,0.45,2290,15,2,27.79,NAN ,100066.94,44.43,NAN ,105.27
11234,0,0,-1.31,1.94,0,0,0.28,-0.23,-0.33,9.79,7,127,38.218987,-85.75341,272,7/25/2017,1:54:35,272,121,195.46,0.45,2290,15,2,27.79,NAN ,100066.94,44.43,NAN ,105.27
11264,0,0,-1.31,1.94,0,0,0.28,-0.23,-0.33,9.79,7,127,38.218987,-85.75341,299,7/25/2017,1:54:35,299,121,195.46,0.45,2290,15,2,27.79,NAN ,100065.2,44.37,NAN ,105.42
11294,0,0,-1.31,1.94,0,0,0.27,-0.23,-0.33,9.79,7,127,38.218987,-85.75341,332,7/25/2017,1:54:35,332,121,195.46,0.45,2290,15,2,27.79,NAN ,100065.2,44.37,NAN ,105.42
11324,0,0,-1.31,1.94,0,0,0.28,-0.23,-0.33,9.79,7,127,38.218987,-85.75341,362,7/25/2017,1:54:35,362,121,195.46,0.45,2290,15,2,27.79,NAN ,100065.58,44.39,NAN ,105.39
11354,0,0,-1.31,1.94,0,0,0.27,-0.23,-0.33,9.79,7,127,38.218987,-85.75341,392,7/25/2017,1:54:35,392,121,195.46,0.45,2290,15,2,27.79,NAN ,100065.58,44.39,NAN ,105.39
11383,0,0,-1.31,1.94,0,0,0.27,-0.23,-0.33,9.79,7,127,38.218987,-85.75341,420,7/25/2017,1:54:35,420,121,195.46,0.45,2290,15,2,27.78,NAN ,100064.8,44.39,NAN ,105.45
11411,0,0,-1.31,1.94,0,0,0.27,-0.23,-0.33,9.79,7,127,38.218987,-85.75341,446,7/25/2017,1:54:35,447,121,195.46,0.45,2290,15,2,27.78,NAN ,100064.8,44.39,NAN ,105.45
11437,0,0,-1.31,1.94,0,0,0.28,-0.23,-0.33,9.79,7,127,38.218987,-85.75341,474,7/25/2017,1:54:35,474,121,195.46,0.45,2290,15,2,27.78,NAN ,100064.8,44.39,NAN ,105.45
11464,0,0,-1.31,1.94,0,0,0.29,-0.23,-0.33,9.79,7,127,38.218987,-85.75341,499,7/25/2017,1:54:35,500,121,195.46,0.45,2290,15,2,27.78,NAN ,100063.43,44.38,NAN ,105.57
11491,0,0,-1.31,1.94,0,0,0.27,-0.23,-0.33,9.79,7,127,38.218987,-85.75341,526,7/25/2017,1:54:35,526,121,195.46,0.45,2290,15,2,27.78,NAN ,100063.43,44.38,NAN ,105.57
11517,0,0,-1.31,1.94,0,0,0.27,-0.23,-0.33,9.79,7,127,38.218987,-85.75341,553,7/25/2017,1:54:35,554,121,195.46,0.45,2290,15,2,27.78,NAN ,100063.43,44.38,NAN ,105.57
11545,0,0,-1.31,1.94,0,0,0.26,-0.23,-0.33,9.79,7,127,38.218987,-85.75341,583,7/25/2017,1:54:35,583,121,195.46,0.45,2290,15,2,27.78,NAN ,100063.43,44.4,NAN ,105.57
11573,0,0,-1.31,1.94,0,0,0.28,-0.23,-0.33,9.79,7,127,38.218987,-85.75341,612,7/25/2017,1:54:35,612,121,195.46,0.45,2290,15,2,27.78,NAN ,100063.43,44.4,NAN ,105.57
11602,0,0,-1.31,1.94,0,0,0.27,-0.23,-0.33,9.79,7,127,38.218987,-85.75341,638,7/25/2017,1:54:35,638,121,195.46,0.45,2290,15,2,27.78,NAN ,100068.89,44.44,NAN ,105.11
11630,0,0,-1.31,1.94,0,0,0.27,-0.23,-0.33,9.79,7,127,38.218987,-85.75341,665,7/25/2017,1:54:35,665,121,195.46,0.45,2290,15,2,27.78,NAN ,100068.89,44.44,NAN ,105.11
11656,0,0,-1.31,1.94,0,0,0.26,-0.23,-0.33,9.79,7,127,38.218987,-85.75341,693,7/25/2017,1:54:35,693,121,195.46,0.45,2290,15,2,27.78,NAN ,100068.89,44.44,NAN ,105.11
11685,0,0,-1.31,1.94,0,0,0.27,-0.23,-0.33,9.79,7,127,38.218987,-85.75341,723,7/25/2017,1:54:35,723,121,195.46,0.45,2290,15,2,27.79,NAN ,100065.2,44.41,NAN ,105.42
11713,0,0,-1.31,1.94,0,0,0.28,-0.23,-0.33,9.79,7,127,38.218987,-85.75341,748,7/25/2017,1:54:35,748,121,195.46,0.45,2290,15,2,27.79,NAN ,100065.2,44.41,NAN ,105.42
11739,0,0,-1.31,1.94,0,0,0.26,-0.23,-0.33,9.79,7,127,38.218987,-85.75341,774,7/25/2017,1:54:35,774,121,195.46,0.45,2290,15,2,27.78,NAN ,100067.53,44.41,NAN ,105.22
11766,0,0,-1.31,1.94,0,0,0.26,-0.23,-0.33,9.79,7,127,38.218987,-85.75341,803,7/25/2017,1:54:35,803,121,195.46,0.45,2306,15,2,27.78,NAN ,100067.53,44.41,NAN ,105.22
11793,0,0,-1.31,1.94,0,0,0.25,-0.23,-0.33,9.79,7,127,38.218987,-85.75341,831,7/25/2017,1:54:35,831,121,195.46,0.45,2334,15,2,27.78,NAN ,100067.53,44.41,NAN ,105.22
11823,0,0,-1.31,1.94,0,0,0.26,-0.23,-0.33,9.79,7,127,38.218987,-85.75341,860,7/25/2017,1:54:35,860,121,195.46,0.45,2362,15,2,27.78,NAN ,100067.53,44.4,NAN ,105.22
11850,0,0,-1.31,1.94,0,0,0.26,-0.23,-0.33,9.79,7,127,38.218983,-85.753403,19,7/25/2017,1:54:36,885,120.8,195.46,0.45,2390,16,2,27.78,NAN ,100067.53,44.4,NAN ,105.22
11876,0,0,-1.31,1.94,0,0,0.27,-0.23,-0.33,9.79,7,127,38.218983,-85.753403,47,7/25/2017,1:54:36,913,120.8,195.46,0.45,2414,16,2,27.79,NAN ,100065.2,44.41,NAN ,105.42
11905,0,0,-1.31,1.94,0,0,0.27,-0.23,-0.33,9.79,7,127,38.218983,-85.753403,77,7/25/2017,1:54:36,943,120.8,195.46,0.45,2442,16,2,27.79,NAN ,100065.2,44.41,NAN ,105.42
11933,0,0,-1.31,1.94,0,0,0.28,-0.23,-0.33,9.79,7,127,38.218983,-85.753403,106,7/25/2017,1:54:36,972,120.8,195.46,0.45,2470,16,2,27.79,NAN ,100065.2,44.41,NAN ,105.42
11964,0,0,-1.31,1.94,0,0,0.29,-0.23,-0.33,9.79,7,127,38.218983,-85.753403,3,7/25/2017,1:54:36,4,120.8,171.39,0.42,2498,17,2,27.78,NAN ,100066.16,44.44,NAN ,105.34
11989,0,0,-1.31,1.94,0,0,0.27,-0.23,-0.33,9.79,7,127,38.218983,-85.753403,29,7/25/2017,1:54:36,29,120.8,171.39,0.42,2522,17,2,27.78,NAN ,100066.16,44.44,NAN ,105.34
12019,0,0,-1.31,1.94,0,0,0.29,-0.23,-0.33,9.79,7,127,38.218983,-85.753403,59,7/25/2017,1:54:36,60,120.8,171.39,0.42,2532,17,2,27.78,NAN ,100064.8,44.39,NAN ,105.45
12048,0,0,-1.31,1.94,0,0,0.28,-0.23,-0.33,9.79,7,127,38.218983,-85.753403,89,7/25/2017,1:54:36,89,120.8,171.39,0.42,2532,17,2,27.78,NAN ,100064.8,44.39,NAN ,105.45
12074,0,0,-1.31,1.94,0,0,0.29,-0.23,-0.33,9.79,7,127,38.218983,-85.753403,117,7/25/2017,1:54:36,117,120.8,171.39,0.42,2532,17,2,27.78,NAN ,100064.8,44.39,NAN ,105.45
12104,0,0,-1.31,1.94,0,0,0.29,-0.23,-0.33,9.79,7,127,38.218983,-85.753403,147,7/25/2017,1:54:36,147,120.8,171.39,0.42,2532,17,2,27.78,NAN ,100063.43,44.38,NAN ,105.57
12133,0,0,-1.31,1.94,0,0,0.29,-0.23,-0.33,9.79,7,127,38.218983,-85.753403,175,7/25/2017,1:54:36,176,120.8,171.39,0.42,2532,17,2,27.78,NAN ,100063.43,44.38,NAN ,105.57
12161,0,0,-1.31,1.94,0,0,0.29,-0.23,-0.33,9.79,7,127,38.218983,-85.753403,201,7/25/2017,1:54:36,201,120.8,171.39,0.42,2532,17,2,27.78,NAN ,100066.16,44.41,NAN ,105.34
12188,0,0,-1.31,1.94,0,0,0.27,-0.23,-0.33,9.79,7,127,38.218983,-85.753403,229,7/25/2017,1:54:36,229,120.8,171.39,0.42,2532,17,2,27.78,NAN ,100066.16,44.41,NAN ,105.34
12214,0,0,-1.31,1.94,0,0,0.28,-0.23,-0.33,9.79,7,127,38.218983,-85.753403,254,7/25/2017,1:54:36,254,120.8,171.39,0.42,2532,17,2,27.78,NAN ,100066.16,44.41,NAN ,105.34
12241,0,0,-1.31,1.94,0,0,0.27,-0.23,-0.33,9.79,7,127,38.218983,-85.753403,281,7/25/2017,1:54:36,281,120.8,171.39,0.42,2532,17,2,27.78,NAN ,100064.8,44.48,NAN ,105.45
12267,0,0,-1.31,1.94,0,0,0.27,-0.23,-0.33,9.79,7,127,38.218983,-85.753403,308,7/25/2017,1:54:36,308,120.8,171.39,0.42,2532,17,2,27.78,NAN ,100064.8,44.48,NAN ,105.45
12294,0,0,-1.31,1.94,0,0,0.26,-0.23,-0.33,9.79,7,127,38.218983,-85.753403,337,7/25/2017,1:54:36,337,120.8,171.39,0.42,2532,17,2,27.78,NAN ,100068.48,44.41,NAN ,105.14
12326,0,0,-1.31,1.94,0,0,0.27,-0.23,-0.33,9.79,7,127,38.218983,-85.753403,368,7/25/2017,1:54:36,368,120.8,171.39,0.42,2532,17,2,27.78,NAN ,100068.48,44.41,NAN ,105.14
12354,0,0,-1.31,1.94,0,0,0.27,-0.23,-0.33,9.79,7,127,38.218983,-85.753403,397,7/25/2017,1:54:36,397,120.8,171.39,0.42,2532,17,2,27.78,NAN ,100068.48,44.41,NAN ,105.14
12383,0,0,-1.31,1.94,0,0,0.29,-0.23,-0.33,9.79,7,127,38.218983,-85.753403,427,7/25/2017,1:54:36,427,120.8,171.39,0.42,2532,17,2,27.79,NAN ,100063.84,44.39,NAN ,105.53
12412,0,0,-1.31,1.94,0,0,0.29,-0.23,-0.33,9.79,7,127,38.218983,-85.753403,452,7/25/2017,1:54:36,452,120.8,171.39,0.42,2532,17,2,27.79,NAN ,100063.84,44.39,NAN ,105.53
12438,0,0,-1.31,1.94,0,0,0.28,-0.23,-0.33,9.79,7,127,38.218983,-85.753403,479,7/25/2017,1:54:36,479,120.8,171.39,0.42,2532,17,2,27.78,NAN ,100064.8,44.4,NAN ,105.45
12466,0,0,-1.31,1.94,0,0,0.28,-0.23,-0.33,9.79,7,127,38.218983,-85.753403,507,7/25/2017,1:54:36,508,120.8,171.39,0.42,2532,17,2,27.78,NAN ,100064.8,44.4,NAN ,105.45
12493,0,0,-1.31,1.94,0,0,0.27,-0.23,-0.33,9.79,7,127,38.218983,-85.753403,536,7/25/2017,1:54:36,536,120.8,171.39,0.42,2532,17,2,27.78,NAN ,100064.8,44.4,NAN ,105.45
12523,0,0,-1.31,1.94,0,0,0.28,-0.23,-0.33,9.79,7,127,38.218983,-85.753403,566,7/25/2017,1:54:36,566,120.8,171.39,0.42,2532,17,2,27.78,NAN ,100062.06,44.41,NAN ,105.68
12552,0,0,-1.31,1.94,0,0,0.28,-0.23,-0.33,9.79,7,127,38.218983,-85.753403,593,7/25/2017,1:54:36,593,120.8,171.39,0.42,2532,17,2,27.78,NAN ,100062.06,44.41,NAN ,105.68
12579,0,0,-1.31,1.94,0,0,0.29,-0.23,-0.33,9.79,7,127,38.218983,-85.753403,619,7/25/2017,1:54:36,619,120.8,171.39,0.42,2532,17,2,27.78,NAN ,100066.16,44.39,NAN ,105.34
12606,0,0,-1.31,1.94,0,0,0.29,-0.23,-0.33,9.79,7,127,38.218983,-85.753403,648,7/25/2017,1:54:36,648,120.8,171.39,0.42,2532,17,2,27.78,NAN ,100066.16,44.39,NAN ,105.34
12633,0,0,-1.31,1.94,0,0,0.3,-0.23,-0.33,9.79,7,127,38.218983,-85.753403,677,7/25/2017,1:54:36,677,120.8,171.39,0.42,2532,17,2,27.78,NAN ,100066.16,44.39,NAN ,105.34
12664,0,0,-1.31,1.94,0,0,0.3,-0.23,-0.33,9.79,7,127,38.218983,-85.753403,704,7/25/2017,1:54:36,704,120.8,171.39,0.42,2532,17,2,27.78,NAN ,100063.43,44.43,NAN ,105.57
12689,0,0,-1.31,1.94,0,0,0.28,-0.23,-0.33,9.79,7,127,38.218983,-85.753403,729,7/25/2017,1:54:36,729,120.8,171.39,0.42,2532,17,2,27.78,NAN ,100063.43,44.43,NAN ,105.57
12719,0,0,-1.31,1.94,0,0,0.29,-0.23,-0.33,9.79,7,127,38.218983,-85.753403,759,7/25/2017,1:54:36,759,120.8,171.39,0.42,2532,17,2,27.78,NAN ,100068.89,44.4,NAN ,105.11
12747,0,0,-1.31,1.94,0,0,0.29,-0.23,-0.33,9.79,7,127,38.218983,-85.753403,788,7/25/2017,1:54:36,788,120.8,171.39,0.42,2532,17,2,27.78,NAN ,100068.89,44.4,NAN ,105.11
12774,0,0,-1.31,1.94,0,0,0.29,-0.23,-0.33,9.79,7,127,38.218983,-85.753403,817,7/25/2017,1:54:36,817,120.8,171.39,0.42,2540,17,2,27.79,NAN ,100070.67,44.43,NAN ,104.96
12805,0,0,-1.31,1.94,0,0,0.28,-0.23,-0.33,9.79,7,127,38.218983,-85.753403,848,7/25/2017,1:54:36,848,120.8,171.39,0.42,2568,17,2,27.79,NAN ,100070.67,44.43,NAN ,104.96
12834,0,0,-1.31,1.94,0,0,0.28,-0.23,-0.33,9.79,7,127,38.218983,-85.753403,877,7/25/2017,1:54:36,877,120.8,171.39,0.42,2596,17,2,27.79,NAN ,100070.67,44.43,NAN ,104.96
12863,0,0,-1.31,1.94,0,0,0.29,-0.23,-0.33,9.79,7,127,38.218979,-85.753403,19,7/25/2017,1:54:37,903,120.6,171.39,0.42,2624,18,2,27.78,NAN ,100067.53,44.43,NAN ,105.22
12890,0,0,-1.31,1.94,0,0,0.27,-0.23,-0.33,9.79,7,127,38.218979,-85.753403,46,7/25/2017,1:54:37,930,120.6,171.39,0.42,2652,18,2,27.78,NAN ,100067.53,44.43,NAN ,105.22
12915,0,0,-1.31,1.94,0,0,0.28,-0.23,-0.33,9.79,7,127,38.218979,-85.753403,73,7/25/2017,1:54:37,957,120.6,171.39,0.42,2676,18,2,27.78,NAN ,100067.53,44.45,NAN ,105.22
12944,0,0,-1.31,1.94,0,0,0.26,-0.23,-0.33,9.79,7,127,38.218979,-85.753403,103,7/25/2017,1:54:37,987,120.6,171.39,0.42,2704,18,2,27.78,NAN ,100067.53,44.45,NAN ,105.22
12972,0,0,-1.31,1.94,0,0,0.28,-0.23,-0.33,9.79,7,127,38.218979,-85.753403,131,7/25/2017,1:54:37,1015,120.6,171.39,0.42,2732,18,2,27.78,NAN ,100067.53,44.45,NAN ,105.22
13001,0,0,-1.31,1.94,0,0,0.28,-0.23,-0.33,9.79,7,127,38.218979,-85.753403,19,7/25/2017,1:54:37,19,120.6,181.65,0.28,2756,19,2,27.79,NAN ,100065.2,44.41,NAN ,105.42
13028,0,0,-1.31,1.94,0,0,0.28,-0.23,-0.33,9.79,7,127,38.218979,-85.753403,47,7/25/2017,1:54:37,47,120.6,181.65,0.28,2774,19,2,27.79,NAN ,100065.2,44.41,NAN ,105.42
13054,0,0,-1.31,1.94,0,0,0.27,-0.23,-0.33,9.79,7,127,38.218979,-85.753403,75,7/25/2017,1:54:37,75,120.6,181.65,0.28,2774,19,2,27.78,NAN ,100067.53,44.43,NAN ,105.22
13084,0,0,-1.31,1.94,0,0,0.28,-0.23,-0.33,9.79,7,127,38.218979,-85.753403,105,7/25/2017,1:54:37,105,120.6,181.65,0.28,2774,19,2,27.78,NAN ,100067.53,44.43,NAN ,105.22
13112,0,0,-1.31,1.94,0,0,0.28,-0.23,-0.33,9.79,7,127,38.218979,-85.753403,130,7/25/2017,1:54:37,130,120.6,181.65,0.28,2774,19,2,27.78,NAN ,100067.53,44.43,NAN ,105.22
13138,0,0,-1.31,1.94,0,0,0.27,-0.23,-0.33,9.79,7,127,38.218979,-85.753403,157,7/25/2017,1:54:37,157,120.6,181.65,0.28,2774,19,2,27.78,NAN ,100065.76,44.44,NAN ,105.37
13165,0,0,-1.31,1.94,0,0,0.28,-0.23,-0.33,9.79,7,127,38.218979,-85.753403,185,7/25/2017,1:54:37,185,120.6,181.65,0.28,2774,19,2,27.78,NAN ,100065.76,44.44,NAN ,105.37
13193,0,0,-1.31,1.94,0,0,0.26,-0.23,-0.33,9.79,7,127,38.218979,-85.753403,214,7/25/2017,1:54:37,214,120.6,181.65,0.28,2774,19,2,27.78,NAN ,100067.53,44.44,NAN ,105.22
13223,0,0,-1.31,1.94,0,0,0.27,-0.23,-0.33,9.79,7,127,38.218979,-85.753403,244,7/25/2017,1:54:37,244,120.6,181.65,0.28,2774,19,2,27.78,NAN ,100067.53,44.44,NAN ,105.22
13252,0,0,-1.31,1.94,0,0,0.27,-0.23,-0.33,9.79,7,127,38.218979,-85.753403,271,7/25/2017,1:54:37,271,120.6,181.65,0.28,2774,19,2,27.78,NAN ,100067.53,44.44,NAN ,105.22
13279,0,0,-1.31,1.94,0,0,0.27,-0.23,-0.33,9.79,7,127,38.218979,-85.753403,297,7/25/2017,1:54:37,297,120.6,181.65,0.28,2774,19,2,27.78,NAN ,100070.27,44.41,NAN ,104.99
13306,0,0,-1.31,1.94,0,0,0.26,-0.23,-0.33,9.79,7,127,38.218979,-85.753403,326,7/25/2017,1:54:37,326,120.6,181.65,0.28,2774,19,2,27.78,NAN ,100070.27,44.41,NAN ,104.99
13333,0,0,-1.31,1.94,0,0,0.27,-0.23,-0.33,9.79,7,127,38.218979,-85.753403,354,7/25/2017,1:54:37,354,120.6,181.65,0.28,2774,19,2,27.78,NAN ,100067.53,44.4,NAN ,105.22
13362,0,0,-1.31,1.94,0,0,0.28,-0.23,-0.33,9.79,7,127,38.218979,-85.753403,380,7/25/2017,1:54:37,380,120.6,181.65,0.28,2774,19,2,27.78,NAN ,100067.53,44.4,NAN ,105.22
13389,0,0,-1.31,1.94,0,0,0.27,-0.23,-0.33,9.79,7,127,38.218979,-85.753403,407,7/25/2017,1:54:37,407,120.6,181.65,0.28,2774,19,2,27.78,NAN ,100067.53,44.4,NAN ,105.22
13414,0,0,-1.31,1.94,0,0,0.27,-0.23,-0.33,9.79,7,127,38.218979,-85.753403,433,7/25/2017,1:54:37,433,120.6,181.65,0.28,2774,19,2,27.78,NAN ,100065.35,44.39,NAN ,105.41
13442,0,0,-1.31,1.94,0,0,0.26,-0.23,-0.33,9.79,7,127,38.218979,-85.753403,461,7/25/2017,1:54:37,461,120.6,181.65,0.28,2774,19,2,27.78,NAN ,100065.35,44.39,NAN ,105.41
13474,0,0,-1.31,1.94,0,0,0.27,-0.23,-0.33,9.79,7,127,38.218979,-85.753403,494,7/25/2017,1:54:37,495,120.6,181.65,0.28,2774,19,2,27.78,NAN ,100063.02,44.41,NAN ,105.6
13503,0,0,-1.31,1.94,0,0,0.27,-0.23,-0.33,9.79,7,127,38.218979,-85.753403,524,7/25/2017,1:54:37,524,120.6,181.65,0.28,2774,19,2,27.78,NAN ,100063.02,44.41,NAN ,105.6
13533,0,0,-1.31,1.94,0,0,0.26,-0.23,-0.33,9.79,7,127,38.218979,-85.753403,554,7/25/2017,1:54:37,554,120.6,181.65,0.28,2774,19,2,27.78,NAN ,100063.02,44.41,NAN ,105.6
13562,0,0,-1.31,1.94,0,0,0.27,-0.23,-0.33,9.79,7,127,38.218979,-85.753403,580,7/25/2017,1:54:37,580,120.6,181.65,0.28,2774,19,2,27.78,NAN ,100071.62,44.41,NAN ,104.88
13589,0,0,-1.31,1.94,0,0,0.26,-0.23,-0.33,9.79,7,127,38.218979,-85.753403,607,7/25/2017,1:54:37,607,120.6,181.65,0.28,2774,19,2,27.78,NAN ,100071.62,44.41,NAN ,104.88
13614,0,0,-1.31,1.94,0,0,0.27,-0.23,-0.33,9.79,7,127,38.218979,-85.753403,633,7/25/2017,1:54:37,633,120.6,181.65,0.28,2774,19,2,27.78,NAN ,100066.72,44.41,NAN ,105.29
13641,0,0,-1.31,1.94,0,0,0.25,-0.23,-0.33,9.79,7,127,38.218979,-85.753403,660,7/25/2017,1:54:37,660,120.6,181.65,0.28,2774,19,2,27.78,NAN ,100066.72,44.41,NAN ,105.29
13668,0,0,-1.31,1.94,0,0,0.26,-0.23,-0.33,9.79,7,127,38.218979,-85.753403,686,7/25/2017,1:54:37,687,120.6,181.65,0.28,2774,19,2,27.78,NAN ,100066.72,44.41,NAN ,105.29
13696,0,0,-1.31,1.94,0,0,0.26,-0.23,-0.33,9.79,7,127,38.218979,-85.753403,715,7/25/2017,1:54:37,716,120.6,181.65,0.28,2774,19,2,27.78,NAN ,100068.48,44.43,NAN ,105.14
13725,0,0,-1.31,1.94,0,0,0.28,-0.23,-0.33,9.79,7,127,38.218979,-85.753403,745,7/25/2017,1:54:37,745,120.6,181.65,0.28,2774,19,2,27.78,NAN ,100068.48,44.43,NAN ,105.14
13753,0,0,-1.31,1.94,0,0,0.27,-0.23,-0.33,9.79,7,127,38.218979,-85.753403,774,7/25/2017,1:54:37,774,120.6,181.65,0.28,2778,19,2,27.78,NAN ,100068.08,44.42,NAN ,105.18
13882,0,0,-1.31,1.94,0,0,0.28,-0.23,-0.33,9.79,7,127,38.218979,-85.753403,902,7/25/2017,1:54:37,902,120.6,181.65,0.28,2857,19,2,27.78,NAN ,100070.81,44.41,NAN ,104.95
13911,0,0,-1.31,1.94,0,0,0.29,-0.23,-0.33,9.79,7,127,38.218979,-85.753403,929,7/25/2017,1:54:37,929,120.6,181.65,0.28,2885,19,3,27.78,NAN ,100067.67,44.44,NAN ,105.21
13936,0,0,-1.31,1.94,0,0,0.27,-0.23,-0.33,9.79,7,127,38.218979,-85.753403,956,7/25/2017,1:54:37,956,120.6,181.65,0.28,2909,19,3,27.78,NAN ,100067.67,44.44,NAN ,105.21
13964,0,0,-1.31,1.94,0,0,0.28,-0.23,-0.33,9.79,7,127,38.218971,-85.753403,5,7/25/2017,1:54:38,5,120.6,185.86,0.36,2937,20,3,27.78,NAN ,100070.41,44.41,NAN ,104.98
13992,0,0,-1.31,1.94,0,0,0.27,-0.23,-0.33,9.79,7,127,38.218971,-85.753403,34,7/25/2017,1:54:38,34,120.6,185.86,0.36,2965,20,3,27.78,NAN ,100070.41,44.41,NAN ,104.98
14020,0,0,-1.31,1.94,0,0,0.28,-0.23,-0.33,9.79,7,127,38.218971,-85.753403,60,7/25/2017,1:54:38,60,120.6,185.86,0.36,2971,20,3,27.78,NAN ,100070.41,44.41,NAN ,104.98
14048,0,0,-1.31,1.94,0,0,0.27,-0.23,-0.33,9.79,7,127,38.218971,-85.753403,87,7/25/2017,1:54:38,87,120.6,185.86,0.36,2971,20,3,27.78,NAN ,100067.67,44.41,NAN ,105.21
14074,0,0,-1.31,1.94,0,0,0.28,-0.23,-0.33,9.79,7,127,38.218971,-85.753403,115,7/25/2017,1:54:38,115,120.6,185.86,0.36,2971,20,3,27.78,NAN ,100067.67,44.41,NAN ,105.21
14103,0,0,-1.31,1.94,0,0,0.28,-0.23,-0.33,9.79,7,127,38.218971,-85.753403,145,7/25/2017,1:54:38,145,120.6,185.86,0.36,2971,20,3,27.78,NAN ,100069.05,44.41,NAN ,105.1
14134,0,0,-1.31,1.94,0,0,0.29,-0.23,-0.33,9.79,7,127,38.218971,-85.753403,175,7/25/2017,1:54:38,175,120.6,185.86,0.36,2971,20,3,27.78,NAN ,100069.05,44.41,NAN ,105.1
14162,0,0,-1.31,1.94,0,0,0.28,-0.23,-0.33,9.79,7,127,38.218971,-85.753403,201,7/25/2017,1:54:38,201,120.6,185.86,0.36,2971,20,3,27.78,NAN ,100069.05,44.41,NAN ,105.1
14190,0,0,-1.31,1.94,0,0,0.27,-0.23,-0.33,9.79,7,127,38.218971,-85.753403,229,7/25/2017,1:54:38,229,120.6,185.86,0.36,2971,20,3,27.78,NAN ,100065.35,44.4,NAN ,105.41
14215,0,0,-1.31,1.94,0,0,0.28,-0.23,-0.33,9.79,7,127,38.218971,-85.753403,256,7/25/2017,1:54:38,256,120.6,185.86,0.36,2971,20,3,27.78,NAN ,100065.35,44.4,NAN ,105.41
14244,0,0,-1.31,1.94,0,0,0.27,-0.23,-0.33,9.79,7,127,38.218971,-85.753403,285,7/25/2017,1:54:38,285,120.6,185.86,0.36,2971,20,3,27.78,NAN ,100063.98,44.38,NAN ,105.52
14272,0,0,-1.31,1.94,0,0,0.28,-0.23,-0.33,9.79,7,127,38.218971,-85.753403,314,7/25/2017,1:54:38,314,120.6,185.86,0.36,2971,20,3,27.78,NAN ,100063.98,44.38,NAN ,105.52
14305,0,0,-1.31,1.94,0,0,0.27,-0.23,-0.33,9.79,7,127,38.218971,-85.753403,346,7/25/2017,1:54:38,346,120.6,185.86,0.36,2971,20,3,27.78,NAN ,100063.98,44.38,NAN ,105.52
14335,0,0,-1.31,1.94,0,0,0.28,-0.23,-0.33,9.79,7,127,38.218971,-85.753403,376,7/25/2017,1:54:38,376,120.6,185.86,0.36,2971,20,3,27.78,NAN ,100066.31,44.41,NAN ,105.33
14362,0,0,-1.31,1.94,0,0,0.29,-0.23,-0.33,9.79,7,127,38.218971,-85.753403,401,7/25/2017,1:54:38,401,120.6,185.86,0.36,2971,20,3,27.78,NAN ,100066.31,44.41,NAN ,105.33
14389,0,0,-1.31,1.94,0,0,0.27,-0.23,-0.33,9.79,7,127,38.218971,-85.753403,428,7/25/2017,1:54:38,428,120.6,185.86,0.36,2971,20,3,27.78,NAN ,100069.45,44.4,NAN ,105.06
14415,0,0,-1.31,1.94,0,0,0.28,-0.23,-0.33,9.79,7,127,38.218971,-85.753403,455,7/25/2017,1:54:38,455,120.6,185.86,0.36,2971,20,3,27.78,NAN ,100069.45,44.4,NAN ,105.06
14442,0,0,-1.31,1.94,0,0,0.26,-0.23,-0.33,9.79,7,127,38.218971,-85.753403,484,7/25/2017,1:54:38,484,120.6,185.86,0.36,2971,20,3,27.78,NAN ,100069.45,44.4,NAN ,105.06
14472,0,0,-1.31,1.94,0,0,0.28,-0.23,-0.33,9.79,7,127,38.218971,-85.753403,514,7/25/2017,1:54:38,514,120.6,185.86,0.36,2971,20,3,27.78,NAN ,100070.81,44.39,NAN ,104.95
14501,0,0,-1.31,1.94,0,0,0.28,-0.23,-0.33,9.79,7,127,38.218971,-85.753403,541,7/25/2017,1:54:38,541,120.6,185.86,0.36,2971,20,3,27.78,NAN ,100070.81,44.39,NAN ,104.95
14529,0,0,-1.31,1.94,0,0,0.29,-0.23,-0.33,9.79,7,127,38.218971,-85.753403,568,7/25/2017,1:54:38,568,120.6,185.86,0.36,2971,20,3,27.78,NAN ,100065.76,44.41,NAN ,105.37
