{"roll":3.56,"pitch":66.06,"heading":2.61,"pressure_altitude":287.46,"temp":40.88,"delta":0.0,"iso8601":"2017-08-05T23:16:49Z","agl":0.0,"acceleration":0.0017,"latitude":35.4872267,"longitude":-85.9581597,"speed":0.0,"gps_altitude":0.0,"phase":0,"apogee_cause":4,"main_alt":0.0}
{"roll":3.56,"pitch":66.06,"heading":2.61,"pressure_altitude":287.43,"temp":40.88,"delta":0.0,"iso8601":"2017-08-05T23:16:49Z","agl":-0.1,"acceleration":0.0017,"latitude":35.4872244,"longitude":-85.9581593,"speed":0.0,"gps_altitude":0.0,"phase":0,"apogee_cause":4,"main_alt":0.0}
{"roll":3.56,"pitch":66.06,"heading":2.61,"pressure_altitude":287.47,"temp":40.88,"delta":0.0,"iso8601":"2017-08-05T23:16:49Z","agl":0.0,"acceleration":0.0029,"latitude":35.4872221,"longitude":-85.958159,"speed":0.0,"gps_altitude":0.0,"phase":0,"apogee_cause":4,"main_alt":0.0}
{"roll":3.56,"pitch":66.06,"heading":2.61,"pressure_altitude":287.51,"temp":40.88,"delta":0.0,"iso8601":"2017-08-05T23:16:49Z","agl":0.0,"acceleration":0.001,"latitude":35.4872198,"longitude":-85.9581586,"speed":0.0,"gps_altitude":0.0,"phase":0,"apogee_cause":4,"main_alt":0.0}
{"roll":3.56,"pitch":66.06,"heading":2.61,"pressure_altitude":287.53,"temp":40.88,"delta":0.0,"iso8601":"2017-08-05T23:16:49Z","agl":0.0,"acceleration":0.0022,"latitude":35.4872175,"longitude":-85.9581583,"speed":0.0,"gps_altitude":0.0,"phase":0,"apogee_cause":4,"main_alt":0.0}
{"roll":3.56,"pitch":66.06,"heading":2.61,"pressure_altitude":287.57,"temp":40.88,"delta":0.0,"iso8601":"2017-08-05T23:16:49Z","agl":0.1,"acceleration":0.0022,"latitude":35.4872152,"longitude":-85.958158,"speed":0.0,"gps_altitude":0.0,"phase":0,"apogee_cause":4,"main_alt":0.0}
{"roll":3.56,"pitch":66.06,"heading":2.61,"pressure_altitude":287.6,"temp":40.88,"delta":0.0,"iso8601":"2017-08-05T23:16:49Z","agl":0.1,"acceleration":0.002,"latitude":35.4872129,"longitude":-85.9581576,"speed":0.0,"gps_altitude":0.0,"phase":0,"apogee_cause":4,"main_alt":0.0}
{"roll":3.56,"pitch":66.06,"heading":2.61,"pressure_altitude":287.61,"temp":40.88,"delta":0.0,"iso8601":"2017-08-05T23:16:49Z","agl":0.1,"acceleration":0.002,"latitude":35.4872105,"longitude":-85.9581573,"speed":0.0,"gps_altitude":0.0,"phase":0,"apogee_cause":4,"main_alt":0.0}
{"roll":3.56,"pitch":66.06,"heading":2.61,"pressure_altitude":287.62,"temp":40.88,"delta":0.0,"iso8601":"2017-08-05T23:16:49Z","agl":0.1,"acceleration":0.001,"latitude":35.4872082,"longitude":-85.958157,"speed":0.0,"gps_altitude":0.0,"phase":0,"apogee_cause":4,"main_alt":0.0}
{"roll":3.56,"pitch":66.06,"heading":2.61,"pressure_altitude":287.62,"temp":40.88,"delta":0.0,"iso8601":"2017-08-05T23:16:49Z","agl":0.1,"acceleration":0.001,"latitude":35.4872059,"longitude":-85.9581566,"speed":0.0,"gps_altitude":0.0,"phase":0,"apogee_cause":4,"main_alt":0.0}
{"roll":3.56,"pitch":66.06,"heading":2.61,"pressure_altitude":287.61,"temp":40.89,"delta":0.0,"iso8601":"2017-08-05T23:16:49Z","agl":0.1,"acceleration":0.0,"latitude":35.4872036,"longitude":-85.9581563,"speed":0.0,"gps_altitude":0.0,"phase":0,"apogee_cause":4,"main_alt":0.0}
{"roll":3.56,"pitch":66.06,"heading":2.61,"pressure_altitude":287.6,"temp":40.89,"delta":0.0,"iso8601":"2017-08-05T23:16:49Z","agl":0.1,"acceleration":0.002,"latitude":35.4872013,"longitude":-85.9581559,"speed":0.0,"gps_altitude":0.0,"phase":0,"apogee_cause":4,"main_alt":0.0}
{"roll":3.56,"pitch":66.06,"heading":2.61,"pressure_altitude":287.59,"temp":40.88,"delta":0.0,"iso8601":"2017-08-05T23:16:49Z","agl":0.1,"acceleration":0.002,"latitude":35.487199,"longitude":-85.9581556,"speed":0.0,"gps_altitude":0.0,"phase":0,"apogee_cause":4,"main_alt":0.0}
{"roll":3.56,"pitch":66.06,"heading":2.61,"pressure_altitude":287.58,"temp":40.88,"delta":0.0,"iso8601":"2017-08-05T23:16:49Z","agl":0.1,"acceleration":0.0031,"latitude":35.4871967,"longitude":-85.9581553,"speed":0.0,"gps_altitude":0.0,"phase":0,"apogee_cause":4,"main_alt":0.0}
{"roll":3.56,"pitch":66.06,"heading":2.61,"pressure_altitude":287.57,"temp":40.88,"delta":0.0,"iso8601":"2017-08-05T23:16:49Z","agl":0.1,"acceleration":0.002,"latitude":35.4871944,"longitude":-85.9581549,"speed":0.0,"gps_altitude":0.0,"phase":0,"apogee_cause":4,"main_alt":0.0}
{"roll":3.56,"pitch":66.06,"heading":2.61,"pressure_altitude":287.56,"temp":40.88,"delta":0.0,"iso8601":"2017-08-05T23:16:49Z","agl":0.1,"acceleration":0.0031,"latitude":35.4871921,"longitude":-85.9581546,"speed":0.0,"gps_altitude":0.0,"phase":0,"apogee_cause":4,"main_alt":0.0}
{"roll":3.56,"pitch":66.06,"heading":2.61,"pressure_altitude":287.55,"temp":40.88,"delta":0.0,"iso8601":"2017-08-05T23:16:49Z","agl":0.1,"acceleration":0.002,"latitude":35.4871898,"longitude":-85.9581542,"speed":0.0,"gps_altitude":0.0,"phase":0,"apogee_cause":4,"main_alt":0.0}
{"roll":3.56,"pitch":66.06,"heading":2.61,"pressure_altitude":287.58,"temp":40.88,"delta":0.0,"iso8601":"2017-08-05T23:16:49Z","agl":0.1,"acceleration":0.002,"latitude":35.4871875,"longitude":-85.9581539,"speed":0.0,"gps_altitude":0.0,"phase":0,"apogee_cause":4,"main_alt":0.0}
{"roll":3.56,"pitch":66.06,"heading":2.61,"pressure_altitude":287.61,"temp":40.88,"delta":1.0,"iso8601":"2017-08-05T23:16:49Z","agl":0.1,"acceleration":0.0,"latitude":35.4871852,"longitude":-85.9581536,"speed":0.0,"gps_altitude":0.0,"phase":0,"apogee_cause":4,"main_alt":0.0}
{"roll":3.56,"pitch":66.06,"heading":2.61,"pressure_altitude":287.63,"temp":40.88,"delta":1.0,"iso8601":"2017-08-05T23:16:49Z","agl":0.1,"acceleration":0.0,"latitude":35.4871829,"longitude":-85.9581532,"speed":0.0,"gps_altitude":0.0,"phase":0,"apogee_cause":4,"main_alt":0.0}
{"roll":3.56,"pitch":66.06,"heading":2.61,"pressure_altitude":287.64,"temp":40.88,"delta":1.0,"iso8601":"2017-08-05T23:16:49Z","agl":0.1,"acceleration":0.0022,"latitude":35.4871806,"longitude":-85.9581529,"speed":0.0,"gps_altitude":0.0,"phase":0,"apogee_cause":4,"main_alt":0.0}
{"roll":3.56,"pitch":66.06,"heading":2.61,"pressure_altitude":287.64,"temp":40.88,"delta":1.0,"iso8601":"2017-08-05T23:16:49Z","agl":0.1,"acceleration":0.0029,"latitude":35.4871783,"longitude":-85.9581526,"speed":0.0,"gps_altitude":0.0,"phase":0,"apogee_cause":4,"main_alt":0.0}
{"roll":3.56,"pitch":66.06,"heading":2.61,"pressure_altitude":287.61,"temp":40.88,"delta":1.0,"iso8601":"2017-08-05T23:16:49Z","agl":0.1,"acceleration":0.0029,"latitude":35.4871759,"longitude":-85.9581522,"speed":0.0,"gps_altitude":0.0,"phase":0,"apogee_cause":4,"main_alt":0.0}
{"roll":3.56,"pitch":66.06,"heading":2.61,"pressure_altitude":287.59,"temp":40.88,"delta":1.0,"iso8601":"2017-08-05T23:16:49Z","agl":0.1,"acceleration":0.0022,"latitude":35.4871736,"longitude":-85.9581519,"speed":0.0,"gps_altitude":0.0,"phase":0,"apogee_cause":4,"main_alt":0.0}
{"roll":3.56,"pitch":66.06,"heading":2.61,"pressure_altitude":287.58,"temp":40.88,"delta":1.0,"iso8601":"2017-08-05T23:16:50Z","agl":0.1,"acceleration":0.0024,"latitude":35.4871713,"longitude":-85.9581515,"speed":0.0,"gps_altitude":0.0,"phase":0,"apogee_cause":4,"main_alt":0.0}
{"roll":3.56,"pitch":66.06,"heading":2.61,"pressure_altitude":287.54,"temp":40.88,"delta":1.0,"iso8601":"2017-08-05T23:16:50Z","agl":0.0,"acceleration":0.0024,"latitude":35.487169,"longitude":-85.9581512,"speed":0.0,"gps_altitude":0.0,"phase":0,"apogee_cause":4,"main_alt":0.0}
{"roll":3.56,"pitch":66.06,"heading":2.61,"pressure_altitude":287.51,"temp":40.88,"delta":1.0,"iso8601":"2017-08-05T23:16:50Z","agl":0.0,"acceleration":0.0029,"latitude":35.4871667,"longitude":-85.9581509,"speed":0.0,"gps_altitude":0.0,"phase":0,"apogee_cause":4,"main_alt":0.0}
{"roll":3.56,"pitch":66.06,"heading":2.61,"pressure_altitude":287.55,"temp":40.88,"delta":1.0,"iso8601":"2017-08-05T23:16:50Z","agl":0.1,"acceleration":0.0036,"latitude":35.4871644,"longitude":-85.9581505,"speed":0.0,"gps_altitude":0.0,"phase":0,"apogee_cause":4,"main_alt":0.0}
{"roll":3.56,"pitch":66.06,"heading":2.61,"pressure_altitude":287.58,"temp":40.88,"delta":1.0,"iso8601":"2017-08-05T23:16:50Z","agl":0.1,"acceleration":0.0031,"latitude":35.4871621,"longitude":-85.9581502,"speed":0.0,"gps_altitude":0.0,"phase":0,"apogee_cause":4,"main_alt":0.0}
{"roll":3.56,"pitch":66.06,"heading":2.61,"pressure_altitude":287.6,"temp":40.88,"delta":1.0,"iso8601":"2017-08-05T23:16:50Z","agl":0.1,"acceleration":0.0031,"latitude":35.4871598,"longitude":-85.9581498,"speed":0.0,"gps_altitude":0.0,"phase":0,"apogee_cause":4,"main_alt":0.0}
{"roll":3.56,"pitch":66.06,"heading":2.61,"pressure_altitude":287.6,"temp":40.88,"delta":1.0,"iso8601":"2017-08-05T23:16:50Z","agl":0.1,"acceleration":0.0024,"latitude":35.4871575,"longitude":-85.9581495,"speed":0.0,"gps_altitude":0.0,"phase":0,"apogee_cause":4,"main_alt":0.0}
{"roll":3.56,"pitch":66.06,"heading":2.61,"pressure_altitude":287.61,"temp":40.88,"delta":1.0,"iso8601":"2017-08-05T23:16:50Z","agl":0.1,"acceleration":0.0024,"latitude":35.4871552,"longitude":-85.9581492,"speed":0.0,"gps_altitude":0.0,"phase":0,"apogee_cause":4,"main_alt":0.0}
{"roll":3.56,"pitch":66.06,"heading":2.61,"pressure_altitude":287.6,"temp":40.89,"delta":1.0,"iso8601":"2017-08-05T23:16:50Z","agl":0.1,"acceleration":0.0014,"latitude":35.4871529,"longitude":-85.9581488,"speed":0.0,"gps_altitude":0.0,"phase":0,"apogee_cause":4,"main_alt":0.0}
{"roll":3.56,"pitch":66.06,"heading":2.61,"pressure_altitude":287.59,"temp":40.89,"delta":1.0,"iso8601":"2017-08-05T23:16:50Z","agl":0.1,"acceleration":0.0014,"latitude":35.4871506,"longitude":-85.9581485,"speed":0.0,"gps_altitude":0.0,"phase":0,"apogee_cause":4,"main_alt":0.0}
{"roll":3.56,"pitch":66.06,"heading":2.61,"pressure_altitude":287.58,"temp":40.89,"delta":1.0,"iso8601":"2017-08-05T23:16:50Z","agl":0.1,"acceleration":0.0031,"latitude":35.4871483,"longitude":-85.9581482,"speed":0.0,"gps_altitude":0.0,"phase":0,"apogee_cause":4,"main_alt":0.0}
{"roll":3.56,"pitch":66.06,"heading":2.61,"pressure_altitude":287.61,"temp":40.88,"delta":1.0,"iso8601":"2017-08-05T23:16:50Z","agl":0.1,"acceleration":0.002,"latitude":35.487146,"longitude":-85.9581478,"speed":0.0,"gps_altitude":0.0,"phase":0,"apogee_cause":4,"main_alt":0.0}
{"roll":3.56,"pitch":66.06,"heading":2.61,"pressure_altitude":287.63,"temp":40.88,"delta":1.0,"iso8601":"2017-08-05T23:16:50Z","agl":0.1,"acceleration":0.002,"latitude":35.4871437,"longitude":-85.9581475,"speed":0.0,"gps_altitude":0.0,"phase":0,"apogee_cause":4,"main_alt":0.0}
{"roll":3.56,"pitch":66.06,"heading":2.61,"pressure_altitude":287.58,"temp":40.88,"delta":1.0,"iso8601":"2017-08-05T23:16:50Z","agl":0.1,"acceleration":0.002,"latitude":35.4871414,"longitude":-85.9581471,"speed":0.0,"gps_altitude":0.0,"phase":0,"apogee_cause":4,"main_alt":0.0}
{"roll":3.56,"pitch":66.06,"heading":2.61,"pressure_altitude":287.54,"temp":40.88,"delta":1.0,"iso8601":"2017-08-05T23:16:50Z","agl":0.0,"acceleration":0.002,"latitude":35.487139,"longitude":-85.9581468,"speed":0.0,"gps_altitude":0.0,"phase":0,"apogee_cause":4,"main_alt":0.0}
{"roll":3.56,"pitch":66.06,"heading":2.61,"pressure_altitude":287.51,"temp":40.88,"delta":1.0,"iso8601":"2017-08-05T23:16:50Z","agl":0.0,"acceleration":0.001,"latitude":35.4871367,"longitude":-85.9581465,"speed":0.0,"gps_altitude":0.0,"phase":0,"apogee_cause":4,"main_alt":0.0}
{"roll":3.56,"pitch":66.06,"heading":2.61,"pressure_altitude":287.45,"temp":40.89,"delta":1.0,"iso8601":"2017-08-05T23:16:50Z","agl":-0.1,"acceleration":0.001,"latitude":35.4871344,"longitude":-85.9581461,"speed":0.0,"gps_altitude":0.0,"phase":0,"apogee_cause":4,"main_alt":0.0}
{"roll":3.56,"pitch":66.06,"heading":2.61,"pressure_altitude":287.4,"temp":40.89,"delta":1.0,"iso8601":"2017-08-05T23:16:50Z","agl":-0.1,"acceleration":0.0,"latitude":35.4871321,"longitude":-85.9581458,"speed":0.0,"gps_altitude":0.0,"phase":0,"apogee_cause":4,"main_alt":0.0}
{"roll":3.56,"pitch":66.06,"heading":2.61,"pressure_altitude":287.37,"temp":40.89,"delta":1.0,"iso8601":"2017-08-05T23:16:50Z","agl":-0.1,"acceleration":0.0,"latitude":35.4871298,"longitude":-85.9581454,"speed":0.0,"gps_altitude":0.0,"phase":0,"apogee_cause":4,"main_alt":0.0}
{"roll":3.56,"pitch":66.06,"heading":2.61,"pressure_altitude":287.31,"temp":40.89,"delta":1.0,"iso8601":"2017-08-05T23:16:50Z","agl":-0.2,"acceleration":0.001,"latitude":35.4871275,"longitude":-85.9581451,"speed":0.0,"gps_altitude":0.0,"phase":0,"apogee_cause":4,"main_alt":0.0}
{"roll":3.56,"pitch":66.06,"heading":2.61,"pressure_altitude":287.27,"temp":40.89,"delta":1.0,"iso8601":"2017-08-05T23:16:50Z","agl":-0.2,"acceleration":0.001,"latitude":35.4871252,"longitude":-85.9581448,"speed":0.0,"gps_altitude":0.0,"phase":0,"apogee_cause":4,"main_alt":0.0}
{"roll":3.56,"pitch":66.06,"heading":2.61,"pressure_altitude":287.36,"temp":40.88,"delta":1.0,"iso8601":"2017-08-05T23:16:50Z","agl":-0.1,"acceleration":0.0014,"latitude":35.4871229,"longitude":-85.9581444,"speed":0.0,"gps_altitude":0.0,"phase":0,"apogee_cause":4,"main_alt":0.0}
{"roll":3.56,"pitch":66.06,"heading":2.61,"pressure_altitude":287.43,"temp":40.88,"delta":1.0,"iso8601":"2017-08-05T23:16:50Z","agl":-0.1,"acceleration":0.0014,"latitude":35.4871206,"longitude":-85.9581441,"speed":0.0,"gps_altitude":0.0,"phase":0,"apogee_cause":4,"main_alt":0.0}
{"roll":3.56,"pitch":66.06,"heading":2.61,"pressure_altitude":287.48,"temp":40.88,"delta":1.0,"iso8601":"2017-08-05T23:16:50Z","agl":0.0,"acceleration":0.0,"latitude":35.4871183,"longitude":-85.9581438,"speed":0.0,"gps_altitude":0.0,"phase":0,"apogee_cause":4,"main_alt":0.0}
{"roll":3.56,"pitch":66.06,"heading":2.61,"pressure_altitude":287.48,"temp":40.88,"delta":1.0,"iso8601":"2017-08-05T23:16:50Z","agl":0.0,"acceleration":0.0014,"latitude":35.487116,"longitude":-85.9581434,"speed":0.0,"gps_altitude":0.0,"phase":0,"apogee_cause":4,"main_alt":0.0}
{"roll":3.56,"pitch":66.06,"heading":2.61,"pressure_altitude":287.48,"temp":40.88,"delta":1.0,"iso8601":"2017-08-05T23:16:50Z","agl":0.0,"acceleration":0.0022,"latitude":35.4871137,"longitude":-85.9581431,"speed":0.0,"gps_altitude":0.0,"phase":0,"apogee_cause":4,"main_alt":0.0}
{"roll":3.56,"pitch":66.06,"heading":2.61,"pressure_altitude":287.48,"temp":40.88,"delta":1.0,"iso8601":"2017-08-05T23:16:50Z","agl":0.0,"acceleration":0.0024,"latitude":35.4871114,"longitude":-85.9581427,"speed":0.0,"gps_altitude":0.0,"phase":0,"apogee_cause":4,"main_alt":0.0}
{"roll":3.56,"pitch":66.06,"heading":2.61,"pressure_altitude":287.48,"temp":40.88,"delta":1.0,"iso8601":"2017-08-05T23:16:50Z","agl":0.0,"acceleration":0.0014,"latitude":35.4871091,"longitude":-85.9581424,"speed":0.0,"gps_altitude":0.0,"phase":0,"apogee_cause":4,"main_alt":0.0}
{"roll":3.56,"pitch":66.06,"heading":2.61,"pressure_altitude":287.47,"temp":40.88,"delta":1.0,"iso8601":"2017-08-05T23:16:50Z","agl":0.0,"acceleration":0.0022,"latitude":35.4871068,"longitude":-85.9581421,"speed":0.0,"gps_altitude":0.0,"phase":0,"apogee_cause":4,"main_alt":0.0}
{"roll":3.56,"pitch":66.06,"heading":2.61,"pressure_altitude":287.47,"temp":40.88,"delta":1.0,"iso8601":"2017-08-05T23:16:50Z","agl":0.0,"acceleration":0.0014,"latitude":35.4871044,"longitude":-85.9581417,"speed":0.0,"gps_altitude":0.0,"phase":0,"apogee_cause":4,"main_alt":0.0}
{"roll":3.56,"pitch":66.06,"heading":2.61,"pressure_altitude":287.54,"temp":40.88,"delta":1.0,"iso8601":"2017-08-05T23:16:50Z","agl":0.0,"acceleration":0.0022,"latitude":35.4871021,"longitude":-85.9581414,"speed":0.0,"gps_altitude":0.0,"phase":0,"apogee_cause":4,"main_alt":0.0}
{"roll":3.56,"pitch":66.06,"heading":2.61,"pressure_altitude":287.6,"temp":40.88,"delta":2.0,"iso8601":"2017-08-05T23:16:50Z","agl":0.1,"acceleration":0.0031,"latitude":35.4870998,"longitude":-85.958141,"speed":0.0,"gps_altitude":0.0,"phase":0,"apogee_cause":4,"main_alt":0.0}
{"roll":3.56,"pitch":66.06,"heading":2.61,"pressure_altitude":287.65,"temp":40.88,"delta":2.0,"iso8601":"2017-08-05T23:16:50Z","agl":0.1,"acceleration":0.0031,"latitude":35.4870975,"longitude":-85.9581407,"speed":0.0,"gps_altitude":0.0,"phase":0,"apogee_cause":4,"main_alt":0.0}
{"roll":3.56,"pitch":66.06,"heading":2.61,"pressure_altitude":287.61,"temp":40.88,"delta":2.0,"iso8601":"2017-08-05T23:16:50Z","agl":0.1,"acceleration":0.0038,"latitude":35.4870952,"longitude":-85.9581404,"speed":0.0,"gps_altitude":0.0,"phase":0,"apogee_cause":4,"main_alt":0.0}
{"roll":3.56,"pitch":66.06,"heading":2.61,"pressure_altitude":287.59,"temp":40.88,"delta":2.0,"iso8601":"2017-08-05T23:16:50Z","agl":0.1,"acceleration":0.0024,"latitude":35.4870929,"longitude":-85.95814,"speed":0.0,"gps_altitude":0.0,"phase":0,"apogee_cause":4,"main_alt":0.0}
{"roll":3.56,"pitch":66.06,"heading":2.61,"pressure_altitude":287.53,"temp":40.88,"delta":2.0,"iso8601":"2017-08-05T23:16:50Z","agl":0.0,"acceleration":0.0038,"latitude":35.4870906,"longitude":-85.9581397,"speed":0.0,"gps_altitude":0.0,"phase":0,"apogee_cause":4,"main_alt":0.0}
{"roll":3.56,"pitch":66.06,"heading":2.61,"pressure_altitude":287.48,"temp":40.88,"delta":2.0,"iso8601":"2017-08-05T23:16:50Z","agl":0.0,"acceleration":0.0024,"latitude":35.4870883,"longitude":-85.9581394,"speed":0.0,"gps_altitude":0.0,"phase":0,"apogee_cause":4,"main_alt":0.0}
{"roll":3.56,"pitch":66.06,"heading":2.61,"pressure_altitude":287.46,"temp":40.88,"delta":2.0,"iso8601":"2017-08-05T23:16:51Z","agl":0.0,"acceleration":0.0022,"latitude":35.487086,"longitude":-85.958139,"speed":0.0,"gps_altitude":0.0,"phase":0,"apogee_cause":4,"main_alt":0.0}
{"roll":3.56,"pitch":66.06,"heading":2.61,"pressure_altitude":287.45,"temp":40.88,"delta":2.0,"iso8601":"2017-08-05T23:16:51Z","agl":-0.1,"acceleration":0.0022,"latitude":35.4870837,"longitude":-85.9581387,"speed":0.0,"gps_altitude":0.0,"phase":0,"apogee_cause":4,"main_alt":0.0}
{"roll":3.56,"pitch":66.06,"heading":2.61,"pressure_altitude":287.44,"temp":40.88,"delta":2.0,"iso8601":"2017-08-05T23:16:51Z","agl":-0.1,"acceleration":0.0022,"latitude":35.4870814,"longitude":-85.9581383,"speed":0.0,"gps_altitude":0.0,"phase":0,"apogee_cause":4,"main_alt":0.0}
{"roll":3.56,"pitch":66.06,"heading":2.61,"pressure_altitude":287.44,"temp":40.88,"delta":2.0,"iso8601":"2017-08-05T23:16:51Z","agl":-0.1,"acceleration":0.0033,"latitude":35.4870791,"longitude":-85.958138,"speed":0.0,"gps_altitude":0.0,"phase":0,"apogee_cause":4,"main_alt":0.0}
{"roll":3.56,"pitch":66.06,"heading":2.61,"pressure_altitude":287.45,"temp":40.88,"delta":2.0,"iso8601":"2017-08-05T23:16:51Z","agl":-0.1,"acceleration":0.0033,"latitude":35.4870768,"longitude":-85.9581377,"speed":0.0,"gps_altitude":0.0,"phase":0,"apogee_cause":4,"main_alt":0.0}
{"roll":3.56,"pitch":66.06,"heading":2.61,"pressure_altitude":287.46,"temp":40.88,"delta":2.0,"iso8601":"2017-08-05T23:16:51Z","agl":0.0,"acceleration":0.0031,"latitude":35.4870745,"longitude":-85.9581373,"speed":0.0,"gps_altitude":0.0,"phase":0,"apogee_cause":4,"main_alt":0.0}
{"roll":3.56,"pitch":66.06,"heading":2.61,"pressure_altitude":287.46,"temp":40.88,"delta":2.0,"iso8601":"2017-08-05T23:16:51Z","agl":0.0,"acceleration":0.0031,"latitude":35.4870722,"longitude":-85.958137,"speed":0.0,"gps_altitude":0.0,"phase":0,"apogee_cause":4,"main_alt":0.0}
{"roll":3.56,"pitch":66.06,"heading":2.61,"pressure_altitude":287.47,"temp":40.88,"delta":2.0,"iso8601":"2017-08-05T23:16:51Z","agl":0.0,"acceleration":0.0033,"latitude":35.4870698,"longitude":-85.9581366,"speed":0.0,"gps_altitude":0.0,"phase":0,"apogee_cause":4,"main_alt":0.0}
{"roll":3.56,"pitch":66.06,"heading":2.61,"pressure_altitude":287.5,"temp":40.88,"delta":2.0,"iso8601":"2017-08-05T23:16:51Z","agl":0.0,"acceleration":0.0022,"latitude":35.4870675,"longitude":-85.9581363,"speed":0.0,"gps_altitude":0.0,"phase":0,"apogee_cause":4,"main_alt":0.0}
{"roll":3.56,"pitch":66.06,"heading":2.61,"pressure_altitude":287.52,"temp":40.88,"delta":2.0,"iso8601":"2017-08-05T23:16:51Z","agl":0.0,"acceleration":0.0022,"latitude":35.4870652,"longitude":-85.958136,"speed":0.0,"gps_altitude":0.0,"phase":0,"apogee_cause":4,"main_alt":0.0}
{"roll":3.56,"pitch":66.06,"heading":2.61,"pressure_altitude":287.52,"temp":40.88,"delta":2.0,"iso8601":"2017-08-05T23:16:51Z","agl":0.0,"acceleration":0.0014,"latitude":35.4870629,"longitude":-85.9581356,"speed":0.0,"gps_altitude":0.0,"phase":0,"apogee_cause":4,"main_alt":0.0}
{"roll":3.56,"pitch":66.06,"heading":2.61,"pressure_altitude":287.51,"temp":40.88,"delta":2.0,"iso8601":"2017-08-05T23:16:51Z","agl":0.0,"acceleration":0.0033,"latitude":35.4870606,"longitude":-85.9581353,"speed":0.0,"gps_altitude":0.0,"phase":0,"apogee_cause":4,"main_alt":0.0}
{"roll":3.56,"pitch":66.06,"heading":2.61,"pressure_altitude":287.56,"temp":40.88,"delta":2.0,"iso8601":"2017-08-05T23:16:51Z","agl":0.1,"acceleration":0.0022,"latitude":35.4870583,"longitude":-85.958135,"speed":0.0,"gps_altitude":0.0,"phase":0,"apogee_cause":4,"main_alt":0.0}
{"roll":3.56,"pitch":66.06,"heading":2.61,"pressure_altitude":287.6,"temp":40.88,"delta":2.0,"iso8601":"2017-08-05T23:16:51Z","agl":0.1,"acceleration":0.0022,"latitude":35.487056,"longitude":-85.9581346,"speed":0.0,"gps_altitude":0.0,"phase":0,"apogee_cause":4,"main_alt":0.0}
{"roll":3.56,"pitch":66.06,"heading":2.61,"pressure_altitude":287.63,"temp":40.88,"delta":2.0,"iso8601":"2017-08-05T23:16:51Z","agl":0.1,"acceleration":0.0022,"latitude":35.4870537,"longitude":-85.9581343,"speed":0.0,"gps_altitude":0.0,"phase":0,"apogee_cause":4,"main_alt":0.0}
{"roll":3.56,"pitch":66.06,"heading":2.61,"pressure_altitude":287.68,"temp":40.88,"delta":2.0,"iso8601":"2017-08-05T23:16:51Z","agl":0.2,"acceleration":0.0022,"latitude":35.4870514,"longitude":-85.9581339,"speed":0.0,"gps_altitude":0.0,"phase":0,"apogee_cause":4,"main_alt":0.0}
{"roll":3.56,"pitch":66.06,"heading":2.61,"pressure_altitude":287.72,"temp":40.88,"delta":2.0,"iso8601":"2017-08-05T23:16:51Z","agl":0.2,"acceleration":0.0022,"latitude":35.4870491,"longitude":-85.9581336,"speed":0.0,"gps_altitude":0.0,"phase":0,"apogee_cause":4,"main_alt":0.0}
{"roll":3.56,"pitch":66.06,"heading":2.61,"pressure_altitude":287.7,"temp":40.88,"delta":2.0,"iso8601":"2017-08-05T23:16:51Z","agl":0.2,"acceleration":0.0022,"latitude":35.4870468,"longitude":-85.9581333,"speed":0.0,"gps_altitude":0.0,"phase":0,"apogee_cause":4,"main_alt":0.0}
{"roll":3.56,"pitch":66.06,"heading":2.61,"pressure_altitude":287.68,"temp":40.88,"delta":2.0,"iso8601":"2017-08-05T23:16:51Z","agl":0.2,"acceleration":0.0033,"latitude":35.4870445,"longitude":-85.9581329,"speed":0.0,"gps_altitude":0.0,"phase":0,"apogee_cause":4,"main_alt":0.0}
{"roll":3.56,"pitch":66.06,"heading":2.61,"pressure_altitude":287.67,"temp":40.88,"delta":2.0,"iso8601":"2017-08-05T23:16:51Z","agl":0.2,"acceleration":0.002,"latitude":35.4870422,"longitude":-85.9581326,"speed":0.0,"gps_altitude":0.0,"phase":0,"apogee_cause":4,"main_alt":0.0}
{"roll":3.56,"pitch":66.06,"heading":2.61,"pressure_altitude":287.66,"temp":40.88,"delta":2.0,"iso8601":"2017-08-05T23:16:51Z","agl":0.2,"acceleration":0.0033,"latitude":35.4870399,"longitude":-85.9581322,"speed":0.0,"gps_altitude":0.0,"phase":0,"apogee_cause":4,"main_alt":0.0}
{"roll":3.56,"pitch":66.06,"heading":2.61,"pressure_altitude":287.66,"temp":40.88,"delta":2.0,"iso8601":"2017-08-05T23:16:51Z","agl":0.2,"acceleration":0.0024,"latitude":35.4870376,"longitude":-85.9581319,"speed":0.0,"gps_altitude":0.0,"phase":0,"apogee_cause":4,"main_alt":0.0}
{"roll":3.56,"pitch":66.06,"heading":2.61,"pressure_altitude":287.62,"temp":40.88,"delta":2.0,"iso8601":"2017-08-05T23:16:51Z","agl":0.1,"acceleration":0.0024,"latitude":35.4870353,"longitude":-85.9581316,"speed":0.0,"gps_altitude":0.0,"phase":0,"apogee_cause":4,"main_alt":0.0}
{"roll":3.56,"pitch":66.06,"heading":2.61,"pressure_altitude":287.59,"temp":40.88,"delta":2.0,"iso8601":"2017-08-05T23:16:51Z","agl":0.1,"acceleration":0.0024,"latitude":35.4870329,"longitude":-85.9581312,"speed":0.0,"gps_altitude":0.0,"phase":0,"apogee_cause":4,"main_alt":0.0}
{"roll":3.56,"pitch":66.06,"heading":2.61,"pressure_altitude":287.56,"temp":40.88,"delta":2.0,"iso8601":"2017-08-05T23:16:51Z","agl":0.1,"acceleration":0.0017,"latitude":35.4870306,"longitude":-85.9581309,"speed":0.0,"gps_altitude":0.0,"phase":0,"apogee_cause":4,"main_alt":0.0}
{"roll":3.56,"pitch":66.06,"heading":2.61,"pressure_altitude":287.52,"temp":40.88,"delta":2.0,"iso8601":"2017-08-05T23:16:51Z","agl":0.0,"acceleration":0.0022,"latitude":35.4870283,"longitude":-85.9581306,"speed":0.0,"gps_altitude":0.0,"phase":0,"apogee_cause":4,"main_alt":0.0}
{"roll":3.56,"pitch":66.06,"heading":2.61,"pressure_altitude":287.5,"temp":40.88,"delta":2.0,"iso8601":"2017-08-05T23:16:51Z","agl":0.0,"acceleration":0.0017,"latitude":35.487026,"longitude":-85.9581302,"speed":0.0,"gps_altitude":0.0,"phase":0,"apogee_cause":4,"main_alt":0.0}
{"roll":3.56,"pitch":66.06,"heading":2.61,"pressure_altitude":287.5,"temp":40.88,"delta":2.0,"iso8601":"2017-08-05T23:16:51Z","agl":0.0,"acceleration":0.0022,"latitude":35.4870237,"longitude":-85.9581299,"speed":0.0,"gps_altitude":0.0,"phase":0,"apogee_cause":4,"main_alt":0.0}
{"roll":3.56,"pitch":66.06,"heading":2.61,"pressure_altitude":287.5,"temp":40.88,"delta":3.0,"iso8601":"2017-08-05T23:16:51Z","agl":0.0,"acceleration":0.0022,"latitude":35.4870214,"longitude":-85.9581295,"speed":0.0,"gps_altitude":0.0,"phase":0,"apogee_cause":4,"main_alt":0.0}
{"roll":3.56,"pitch":66.06,"heading":2.61,"pressure_altitude":287.55,"temp":40.88,"delta":3.0,"iso8601":"2017-08-05T23:16:51Z","agl":0.1,"acceleration":0.0014,"latitude":35.4870191,"longitude":-85.9581292,"speed":0.0,"gps_altitude":0.0,"phase":0,"apogee_cause":4,"main_alt":0.0}
{"roll":3.56,"pitch":66.06,"heading":2.61,"pressure_altitude":287.59,"temp":40.88,"delta":3.0,"iso8601":"2017-08-05T23:16:51Z","agl":0.1,"acceleration":0.0022,"latitude":35.4870168,"longitude":-85.9581289,"speed":0.0,"gps_altitude":0.0,"phase":0,"apogee_cause":4,"main_alt":0.0}
{"roll":3.56,"pitch":66.06,"heading":2.61,"pressure_altitude":287.62,"temp":40.88,"delta":3.0,"iso8601":"2017-08-05T23:16:51Z","agl":0.1,"acceleration":0.0022,"latitude":35.4870145,"longitude":-85.9581285,"speed":0.0,"gps_altitude":0.0,"phase":0,"apogee_cause":4,"main_alt":0.0}
{"roll":3.56,"pitch":66.06,"heading":2.61,"pressure_altitude":287.65,"temp":40.88,"delta":3.0,"iso8601":"2017-08-05T23:16:51Z","agl":0.1,"acceleration":0.0041,"latitude":35.4870122,"longitude":-85.9581282,"speed":0.0,"gps_altitude":0.0,"phase":0,"apogee_cause":4,"main_alt":0.0}
{"roll":3.56,"pitch":66.06,"heading":2.61,"pressure_altitude":287.67,"temp":40.88,"delta":3.0,"iso8601":"2017-08-05T23:16:51Z","agl":0.2,"acceleration":0.0033,"latitude":35.4870099,"longitude":-85.9581278,"speed":0.0,"gps_altitude":0.0,"phase":0,"apogee_cause":4,"main_alt":0.0}
{"roll":3.56,"pitch":66.06,"heading":2.61,"pressure_altitude":287.6,"temp":40.88,"delta":3.0,"iso8601":"2017-08-05T23:16:52Z","agl":0.1,"acceleration":0.002,"latitude":35.4870076,"longitude":-85.9581275,"speed":0.0,"gps_altitude":0.0,"phase":0,"apogee_cause":4,"main_alt":0.0}
{"roll":3.56,"pitch":66.06,"heading":2.61,"pressure_altitude":287.55,"temp":40.88,"delta":3.0,"iso8601":"2017-08-05T23:16:52Z","agl":0.1,"acceleration":0.002,"latitude":35.4870053,"longitude":-85.9581272,"speed":0.0,"gps_altitude":0.0,"phase":0,"apogee_cause":4,"main_alt":0.0}
{"roll":3.56,"pitch":66.06,"heading":2.61,"pressure_altitude":287.5,"temp":40.88,"delta":3.0,"iso8601":"2017-08-05T23:16:52Z","agl":0.0,"acceleration":0.0022,"latitude":35.487003,"longitude":-85.9581268,"speed":0.0,"gps_altitude":0.0,"phase":0,"apogee_cause":4,"main_alt":0.0}
{"roll":3.56,"pitch":66.06,"heading":2.61,"pressure_altitude":287.54,"temp":40.88,"delta":3.0,"iso8601":"2017-08-05T23:16:52Z","agl":0.0,"acceleration":0.0024,"latitude":35.4870007,"longitude":-85.9581265,"speed":0.0,"gps_altitude":0.0,"phase":0,"apogee_cause":4,"main_alt":0.0}
{"roll":3.56,"pitch":66.06,"heading":2.61,"pressure_altitude":287.57,"temp":40.88,"delta":3.0,"iso8601":"2017-08-05T23:16:52Z","agl":0.1,"acceleration":0.0024,"latitude":35.4869983,"longitude":-85.9581262,"speed":0.0,"gps_altitude":0.0,"phase":0,"apogee_cause":4,"main_alt":0.0}
{"roll":3.56,"pitch":66.06,"heading":2.61,"pressure_altitude":287.59,"temp":40.88,"delta":3.0,"iso8601":"2017-08-05T23:16:52Z","agl":0.1,"acceleration":0.0022,"latitude":35.486996,"longitude":-85.9581258,"speed":0.0,"gps_altitude":0.0,"phase":0,"apogee_cause":4,"main_alt":0.0}
{"roll":3.56,"pitch":66.06,"heading":2.61,"pressure_altitude":287.63,"temp":40.88,"delta":3.0,"iso8601":"2017-08-05T23:16:52Z","agl":0.1,"acceleration":0.0029,"latitude":35.4869937,"longitude":-85.9581255,"speed":0.0,"gps_altitude":0.0,"phase":0,"apogee_cause":4,"main_alt":0.0}
{"roll":3.56,"pitch":66.06,"heading":2.61,"pressure_altitude":287.65,"temp":40.88,"delta":3.0,"iso8601":"2017-08-05T23:16:52Z","agl":0.1,"acceleration":0.002,"latitude":35.4869914,"longitude":-85.9581251,"speed":0.0,"gps_altitude":0.0,"phase":0,"apogee_cause":4,"main_alt":0.0}
{"roll":3.56,"pitch":66.06,"heading":2.61,"pressure_altitude":287.67,"temp":40.88,"delta":3.0,"iso8601":"2017-08-05T23:16:52Z","agl":0.2,"acceleration":0.0022,"latitude":35.4869891,"longitude":-85.9581248,"speed":0.0,"gps_altitude":0.0,"phase":0,"apogee_cause":4,"main_alt":0.0}
{"roll":3.56,"pitch":66.06,"heading":2.61,"pressure_altitude":287.66,"temp":40.88,"delta":3.0,"iso8601":"2017-08-05T23:16:52Z","agl":0.2,"acceleration":0.001,"latitude":35.4869868,"longitude":-85.9581245,"speed":0.0,"gps_altitude":0.0,"phase":0,"apogee_cause":4,"main_alt":0.0}
{"roll":3.56,"pitch":66.06,"heading":2.61,"pressure_altitude":287.64,"temp":40.88,"delta":3.0,"iso8601":"2017-08-05T23:16:52Z","agl":0.1,"acceleration":0.0014,"latitude":35.4869845,"longitude":-85.9581241,"speed":0.0,"gps_altitude":0.0,"phase":0,"apogee_cause":4,"main_alt":0.0}
{"roll":3.56,"pitch":66.06,"heading":2.61,"pressure_altitude":287.63,"temp":40.88,"delta":3.0,"iso8601":"2017-08-05T23:16:52Z","agl":0.1,"acceleration":0.001,"latitude":35.4869822,"longitude":-85.9581238,"speed":0.0,"gps_altitude":0.0,"phase":0,"apogee_cause":4,"main_alt":0.0}
{"roll":3.56,"pitch":66.06,"heading":2.61,"pressure_altitude":287.57,"temp":40.88,"delta":3.0,"iso8601":"2017-08-05T23:16:52Z","agl":0.1,"acceleration":0.0014,"latitude":35.4869799,"longitude":-85.9581234,"speed":0.0,"gps_altitude":0.0,"phase":0,"apogee_cause":4,"main_alt":0.0}
{"roll":3.56,"pitch":66.06,"heading":2.61,"pressure_altitude":287.52,"temp":40.88,"delta":3.0,"iso8601":"2017-08-05T23:16:52Z","agl":0.0,"acceleration":0.001,"latitude":35.4869776,"longitude":-85.9581231,"speed":0.0,"gps_altitude":0.0,"phase":0,"apogee_cause":4,"main_alt":0.0}
{"roll":3.56,"pitch":66.06,"heading":2.61,"pressure_altitude":287.48,"temp":40.88,"delta":3.0,"iso8601":"2017-08-05T23:16:52Z","agl":0.0,"acceleration":0.0014,"latitude":35.4869753,"longitude":-85.9581228,"speed":0.0,"gps_altitude":0.0,"phase":0,"apogee_cause":4,"main_alt":0.0}
{"roll":3.56,"pitch":66.06,"heading":2.61,"pressure_altitude":287.52,"temp":40.88,"delta":3.0,"iso8601":"2017-08-05T23:16:52Z","agl":0.0,"acceleration":0.0,"latitude":35.486973,"longitude":-85.9581224,"speed":0.0,"gps_altitude":0.0,"phase":0,"apogee_cause":4,"main_alt":0.0}
{"roll":3.56,"pitch":66.06,"heading":2.61,"pressure_altitude":287.56,"temp":40.88,"delta":3.0,"iso8601":"2017-08-05T23:16:52Z","agl":0.1,"acceleration":0.0014,"latitude":35.4869707,"longitude":-85.9581221,"speed":0.0,"gps_altitude":0.0,"phase":0,"apogee_cause":4,"main_alt":0.0}
{"roll":3.56,"pitch":66.06,"heading":2.61,"pressure_altitude":287.57,"temp":40.88,"delta":3.0,"iso8601":"2017-08-05T23:16:52Z","agl":0.1,"acceleration":0.001,"latitude":35.4869684,"longitude":-85.9581218,"speed":0.0,"gps_altitude":0.0,"phase":0,"apogee_cause":4,"main_alt":0.0}
{"roll":3.56,"pitch":66.06,"heading":2.61,"pressure_altitude":287.57,"temp":40.88,"delta":3.0,"iso8601":"2017-08-05T23:16:52Z","agl":0.1,"acceleration":0.001,"latitude":35.4869661,"longitude":-85.9581214,"speed":0.0,"gps_altitude":0.0,"phase":0,"apogee_cause":4,"main_alt":0.0}
{"roll":3.56,"pitch":66.06,"heading":2.61,"pressure_altitude":287.57,"temp":40.88,"delta":3.0,"iso8601":"2017-08-05T23:16:52Z","agl":0.1,"acceleration":0.001,"latitude":35.4869637,"longitude":-85.9581211,"speed":0.0,"gps_altitude":0.0,"phase":0,"apogee_cause":4,"main_alt":0.0}
{"roll":3.56,"pitch":66.06,"heading":2.61,"pressure_altitude":287.6,"temp":40.88,"delta":3.0,"iso8601":"2017-08-05T23:16:52Z","agl":0.1,"acceleration":0.001,"latitude":35.4869614,"longitude":-85.9581207,"speed":0.0,"gps_altitude":0.0,"phase":0,"apogee_cause":4,"main_alt":0.0}
{"roll":3.56,"pitch":66.06,"heading":2.61,"pressure_altitude":287.63,"temp":40.88,"delta":3.0,"iso8601":"2017-08-05T23:16:52Z","agl":0.1,"acceleration":0.0014,"latitude":35.4869591,"longitude":-85.9581204,"speed":0.0,"gps_altitude":0.0,"phase":0,"apogee_cause":4,"main_alt":0.0}
{"roll":3.56,"pitch":66.06,"heading":2.61,"pressure_altitude":287.65,"temp":40.88,"delta":3.0,"iso8601":"2017-08-05T23:16:52Z","agl":0.1,"acceleration":0.0014,"latitude":35.4869568,"longitude":-85.9581201,"speed":0.0,"gps_altitude":0.0,"phase":0,"apogee_cause":4,"main_alt":0.0}
{"roll":3.56,"pitch":66.06,"heading":2.61,"pressure_altitude":287.67,"temp":40.88,"delta":3.0,"iso8601":"2017-08-05T23:16:52Z","agl":0.2,"acceleration":0.0033,"latitude":35.4869545,"longitude":-85.9581197,"speed":0.0,"gps_altitude":0.0,"phase":0,"apogee_cause":4,"main_alt":0.0}
{"roll":3.56,"pitch":66.06,"heading":2.61,"pressure_altitude":287.68,"temp":40.88,"delta":3.0,"iso8601":"2017-08-05T23:16:52Z","agl":0.2,"acceleration":0.0014,"latitude":35.4869522,"longitude":-85.9581194,"speed":0.0,"gps_altitude":0.0,"phase":0,"apogee_cause":4,"main_alt":0.0}
{"roll":3.56,"pitch":66.06,"heading":2.61,"pressure_altitude":287.64,"temp":40.88,"delta":3.0,"iso8601":"2017-08-05T23:16:52Z","agl":0.1,"acceleration":0.0033,"latitude":35.4869499,"longitude":-85.958119,"speed":0.0,"gps_altitude":0.0,"phase":0,"apogee_cause":4,"main_alt":0.0}
{"roll":3.56,"pitch":66.06,"heading":2.61,"pressure_altitude":287.61,"temp":40.88,"delta":3.0,"iso8601":"2017-08-05T23:16:52Z","agl":0.1,"acceleration":0.0061,"latitude":35.4869476,"longitude":-85.9581187,"speed":0.0,"gps_altitude":0.0,"phase":1,"apogee_cause":4,"main_alt":0.0}
{"roll":3.56,"pitch":66.07,"heading":2.6,"pressure_altitude":287.58,"temp":40.88,"delta":3.0,"iso8601":"2017-08-05T23:16:52Z","agl":0.1,"acceleration":0.5452,"latitude":35.4869453,"longitude":-85.9581184,"speed":0.0,"gps_altitude":0.0,"phase":1,"apogee_cause":4,"main_alt":0.0}
{"roll":3.59,"pitch":66.18,"heading":2.57,"pressure_altitude":287.16,"temp":40.88,"delta":3.0,"iso8601":"2017-08-05T23:16:52Z","agl":-0.3,"acceleration":0.9923,"latitude":35.486943,"longitude":-85.958118,"speed":0.0,"gps_altitude":0.0,"phase":1,"apogee_cause":4,"main_alt":0.0}
{"roll":3.62,"pitch":66.63,"heading":2.56,"pressure_altitude":286.82,"temp":40.88,"delta":3.0,"iso8601":"2017-08-05T23:16:52Z","agl":-0.7,"acceleration":1.3613,"latitude":35.4869407,"longitude":-85.9581177,"speed":0.0,"gps_altitude":0.0,"phase":1,"apogee_cause":4,"main_alt":0.0}
{"roll":3.66,"pitch":67.35,"heading":2.55,"pressure_altitude":286.85,"temp":40.88,"delta":3.0,"iso8601":"2017-08-05T23:16:52Z","agl":-0.6,"acceleration":1.6649,"latitude":35.4869384,"longitude":-85.9581174,"speed":0.0,"gps_altitude":0.0,"phase":1,"apogee_cause":4,"main_alt":0.0}
{"roll":3.69,"pitch":68.18,"heading":2.55,"pressure_altitude":286.88,"temp":40.88,"delta":3.0,"iso8601":"2017-08-05T23:16:52Z","agl":-0.6,"acceleration":1.9136,"latitude":35.4869361,"longitude":-85.958117,"speed":0.0,"gps_altitude":0.0,"phase":1,"apogee_cause":4,"main_alt":0.0}
{"roll":3.73,"pitch":69.35,"heading":2.59,"pressure_altitude":286.9,"temp":40.88,"delta":4.0,"iso8601":"2017-08-05T23:16:52Z","agl":-0.6,"acceleration":2.118,"latitude":35.4869338,"longitude":-85.9581167,"speed":0.0,"gps_altitude":0.0,"phase":1,"apogee_cause":4,"main_alt":0.0}
{"roll":3.79,"pitch":70.54,"heading":2.72,"pressure_altitude":287.07,"temp":40.88,"delta":4.0,"iso8601":"2017-08-05T23:16:52Z","agl":-0.4,"acceleration":2.2817,"latitude":35.4869315,"longitude":-85.9581163,"speed":0.0,"gps_altitude":0.0,"phase":1,"apogee_cause":4,"main_alt":0.0}
{"roll":3.92,"pitch":71.78,"heading":2.91,"pressure_altitude":287.21,"temp":40.88,"delta":4.0,"iso8601":"2017-08-05T23:16:52Z","agl":-0.3,"acceleration":2.4211,"latitude":35.4869291,"longitude":-85.958116,"speed":0.0,"gps_altitude":0.0,"phase":1,"apogee_cause":4,"main_alt":0.0}
{"roll":4.07,"pitch":73.1,"heading":3.05,"pressure_altitude":287.33,"temp":40.88,"delta":4.0,"iso8601":"2017-08-05T23:16:52Z","agl":-0.2,"acceleration":2.5439,"latitude":35.4869268,"longitude":-85.9581157,"speed":0.0,"gps_altitude":0.0,"phase":1,"apogee_cause":4,"main_alt":0.0}
{"roll":4.19,"pitch":74.43,"heading":3.13,"pressure_altitude":287.64,"temp":40.88,"delta":4.0,"iso8601":"2017-08-05T23:16:52Z","agl":0.1,"acceleration":2.6396,"latitude":35.4869245,"longitude":-85.9581153,"speed":0.0,"gps_altitude":0.0,"phase":1,"apogee_cause":4,"main_alt":0.0}
{"roll":4.26,"pitch":75.73,"heading":3.21,"pressure_altitude":287.9,"temp":40.88,"delta":4.0,"iso8601":"2017-08-05T23:16:52Z","agl":0.4,"acceleration":2.7091,"latitude":35.4869222,"longitude":-85.958115,"speed":0.0,"gps_altitude":0.0,"phase":1,"apogee_cause":4,"main_alt":0.0}
{"roll":4.33,"pitch":76.92,"heading":3.27,"pressure_altitude":288.29,"temp":40.88,"delta":4.0,"iso8601":"2017-08-05T23:16:53Z","agl":0.8,"acceleration":2.7674,"latitude":35.4869199,"longitude":-85.9581146,"speed":0.0,"gps_altitude":0.0,"phase":1,"apogee_cause":4,"main_alt":0.0}
{"roll":4.44,"pitch":77.99,"heading":3.28,"pressure_altitude":288.6,"temp":40.88,"delta":4.0,"iso8601":"2017-08-05T23:16:53Z","agl":1.1,"acceleration":2.8246,"latitude":35.4869176,"longitude":-85.9581143,"speed":0.0,"gps_altitude":0.0,"phase":1,"apogee_cause":4,"main_alt":0.0}
{"roll":4.52,"pitch":78.99,"heading":3.25,"pressure_altitude":288.86,"temp":40.88,"delta":4.0,"iso8601":"2017-08-05T23:16:53Z","agl":1.4,"acceleration":2.8642,"latitude":35.4869153,"longitude":-85.958114,"speed":0.0,"gps_altitude":0.0,"phase":1,"apogee_cause":4,"main_alt":0.0}
{"roll":4.57,"pitch":79.85,"heading":3.19,"pressure_altitude":289.34,"temp":40.88,"delta":4.0,"iso8601":"2017-08-05T23:16:53Z","agl":1.8,"acceleration":2.8924,"latitude":35.486913,"longitude":-85.9581136,"speed":0.0,"gps_altitude":0.0,"phase":1,"apogee_cause":4,"main_alt":0.0}
{"roll":4.65,"pitch":80.79,"heading":3.08,"pressure_altitude":289.72,"temp":40.88,"delta":4.0,"iso8601":"2017-08-05T23:16:53Z","agl":2.2,"acceleration":2.9194,"latitude":35.4869107,"longitude":-85.9581133,"speed":0.0,"gps_altitude":0.0,"phase":1,"apogee_cause":4,"main_alt":0.0}
{"roll":4.75,"pitch":81.69,"heading":2.94,"pressure_altitude":290.43,"temp":40.88,"delta":4.0,"iso8601":"2017-08-05T23:16:53Z","agl":2.9,"acceleration":2.9463,"latitude":35.4869084,"longitude":-85.958113,"speed":0.0,"gps_altitude":0.0,"phase":1,"apogee_cause":4,"main_alt":0.0}
{"roll":4.84,"pitch":82.6,"heading":2.77,"pressure_altitude":291.02,"temp":40.88,"delta":4.0,"iso8601":"2017-08-05T23:16:53Z","agl":3.5,"acceleration":2.9618,"latitude":35.4869061,"longitude":-85.9581126,"speed":0.0,"gps_altitude":0.0,"phase":1,"apogee_cause":4,"main_alt":0.0}
{"roll":4.92,"pitch":83.52,"heading":2.55,"pressure_altitude":291.49,"temp":40.88,"delta":4.0,"iso8601":"2017-08-05T23:16:53Z","agl":4.0,"acceleration":2.974,"latitude":35.4869038,"longitude":-85.9581123,"speed":0.0,"gps_altitude":0.0,"phase":1,"apogee_cause":4,"main_alt":0.0}
{"roll":5.02,"pitch":84.45,"heading":2.29,"pressure_altitude":292.19,"temp":40.88,"delta":4.0,"iso8601":"2017-08-05T23:16:53Z","agl":4.7,"acceleration":2.9898,"latitude":35.4869015,"longitude":-85.9581119,"speed":0.0,"gps_altitude":0.0,"phase":1,"apogee_cause":4,"main_alt":0.0}
{"roll":5.11,"pitch":85.33,"heading":2.02,"pressure_altitude":292.76,"temp":40.88,"delta":4.0,"iso8601":"2017-08-05T23:16:53Z","agl":5.3,"acceleration":3.0004,"latitude":35.4868992,"longitude":-85.9581116,"speed":0.0,"gps_altitude":0.0,"phase":1,"apogee_cause":4,"main_alt":0.0}
{"roll":5.19,"pitch":86.16,"heading":1.73,"pressure_altitude":293.73,"temp":40.88,"delta":4.0,"iso8601":"2017-08-05T23:16:53Z","agl":6.2,"acceleration":3.0062,"latitude":35.4868969,"longitude":-85.9581113,"speed":0.0,"gps_altitude":0.0,"phase":1,"apogee_cause":4,"main_alt":0.0}
{"roll":5.28,"pitch":86.98,"heading":1.39,"pressure_altitude":294.53,"temp":40.88,"delta":4.0,"iso8601":"2017-08-05T23:16:53Z","agl":7.0,"acceleration":3.0131,"latitude":35.4868946,"longitude":-85.9581109,"speed":0.0,"gps_altitude":0.0,"phase":1,"apogee_cause":4,"main_alt":0.0}
{"roll":5.37,"pitch":87.78,"heading":1.03,"pressure_altitude":295.19,"temp":40.88,"delta":4.0,"iso8601":"2017-08-05T23:16:53Z","agl":7.7,"acceleration":3.02,"latitude":35.4868922,"longitude":-85.9581106,"speed":0.0,"gps_altitude":0.0,"phase":1,"apogee_cause":4,"main_alt":0.0}
{"roll":5.47,"pitch":88.52,"heading":0.63,"pressure_altitude":296.2,"temp":40.88,"delta":4.0,"iso8601":"2017-08-05T23:16:53Z","agl":8.7,"acceleration":3.0224,"latitude":35.4868899,"longitude":-85.9581102,"speed":0.0,"gps_altitude":0.0,"phase":1,"apogee_cause":4,"main_alt":0.0}
{"roll":5.56,"pitch":89.15,"heading":0.23,"pressure_altitude":297.03,"temp":40.88,"delta":4.0,"iso8601":"2017-08-05T23:16:53Z","agl":9.5,"acceleration":3.0261,"latitude":35.4868876,"longitude":-85.9581099,"speed":0.0,"gps_altitude":0.0,"phase":1,"apogee_cause":4,"main_alt":0.0}
{"roll":5.66,"pitch":89.67,"heading":-0.19,"pressure_altitude":298.17,"temp":40.88,"delta":4.0,"iso8601":"2017-08-05T23:16:53Z","agl":10.7,"acceleration":3.0299,"latitude":35.4868853,"longitude":-85.9581096,"speed":0.0,"gps_altitude":0.0,"phase":1,"apogee_cause":4,"main_alt":0.0}
{"roll":5.76,"pitch":90.05,"heading":-0.6,"pressure_altitude":299.09,"temp":40.88,"delta":4.0,"iso8601":"2017-08-05T23:16:53Z","agl":11.6,"acceleration":3.0314,"latitude":35.486883,"longitude":-85.9581092,"speed":0.0,"gps_altitude":0.0,"phase":1,"apogee_cause":4,"main_alt":0.0}
{"roll":5.86,"pitch":90.28,"heading":-0.98,"pressure_altitude":299.85,"temp":40.88,"delta":4.0,"iso8601":"2017-08-05T23:16:53Z","agl":12.4,"acceleration":3.033,"latitude":35.4868807,"longitude":-85.9581089,"speed":0.0,"gps_altitude":0.0,"phase":1,"apogee_cause":4,"main_alt":0.0}
{"roll":6.0,"pitch":90.31,"heading":-1.42,"pressure_altitude":301.13,"temp":40.88,"delta":4.0,"iso8601":"2017-08-05T23:16:53Z","agl":13.6,"acceleration":3.0336,"latitude":35.4868784,"longitude":-85.9581086,"speed":0.0,"gps_altitude":0.0,"phase":1,"apogee_cause":4,"main_alt":0.0}
{"roll":6.15,"pitch":90.17,"heading":-1.83,"pressure_altitude":302.18,"temp":40.88,"delta":4.0,"iso8601":"2017-08-05T23:16:53Z","agl":14.7,"acceleration":3.0346,"latitude":35.4868761,"longitude":-85.9581082,"speed":0.0,"gps_altitude":0.0,"phase":1,"apogee_cause":4,"main_alt":0.0}
{"roll":6.34,"pitch":89.76,"heading":-2.25,"pressure_altitude":303.78,"temp":40.87,"delta":4.0,"iso8601":"2017-08-05T23:16:53Z","agl":16.3,"acceleration":3.0356,"latitude":35.4868738,"longitude":-85.9581079,"speed":0.0,"gps_altitude":0.0,"phase":1,"apogee_cause":4,"main_alt":0.0}
{"roll":6.57,"pitch":89.03,"heading":-2.66,"pressure_altitude":305.09,"temp":40.87,"delta":4.0,"iso8601":"2017-08-05T23:16:53Z","agl":17.6,"acceleration":3.0356,"latitude":35.4868715,"longitude":-85.9581075,"speed":0.0,"gps_altitude":0.0,"phase":1,"apogee_cause":4,"main_alt":0.0}
{"roll":6.84,"pitch":88.02,"heading":-3.04,"pressure_altitude":306.16,"temp":40.87,"delta":4.0,"iso8601":"2017-08-05T23:16:53Z","agl":18.7,"acceleration":3.0367,"latitude":35.4868692,"longitude":-85.9581072,"speed":0.0,"gps_altitude":0.0,"phase":1,"apogee_cause":4,"main_alt":0.0}
{"roll":7.18,"pitch":86.59,"heading":-3.39,"pressure_altitude":307.91,"temp":40.88,"delta":4.0,"iso8601":"2017-08-05T23:16:53Z","agl":20.4,"acceleration":3.0359,"latitude":35.4868669,"longitude":-85.9581069,"speed":0.0,"gps_altitude":0.0,"phase":1,"apogee_cause":4,"main_alt":0.0}
{"roll":7.55,"pitch":84.86,"heading":-3.69,"pressure_altitude":309.35,"temp":40.88,"delta":4.0,"iso8601":"2017-08-05T23:16:53Z","agl":21.9,"acceleration":3.0355,"latitude":35.4868646,"longitude":-85.9581065,"speed":0.0,"gps_altitude":0.0,"phase":1,"apogee_cause":4,"main_alt":0.0}
{"roll":8.02,"pitch":82.56,"heading":-3.95,"pressure_altitude":310.53,"temp":40.88,"delta":4.0,"iso8601":"2017-08-05T23:16:53Z","agl":23.0,"acceleration":3.0361,"latitude":35.4868623,"longitude":-85.9581062,"speed":0.0,"gps_altitude":0.0,"phase":1,"apogee_cause":4,"main_alt":0.0}
{"roll":8.5,"pitch":80.16,"heading":-4.14,"pressure_altitude":312.8,"temp":40.87,"delta":4.0,"iso8601":"2017-08-05T23:16:53Z","agl":25.3,"acceleration":3.0346,"latitude":35.48686,"longitude":-85.9581058,"speed":0.0,"gps_altitude":0.0,"phase":1,"apogee_cause":4,"main_alt":0.0}
{"roll":9.13,"pitch":76.97,"heading":-4.29,"pressure_altitude":314.66,"temp":40.87,"delta":4.0,"iso8601":"2017-08-05T23:16:53Z","agl":27.2,"acceleration":3.0333,"latitude":35.4868576,"longitude":-85.9581055,"speed":0.0,"gps_altitude":0.0,"phase":1,"apogee_cause":4,"main_alt":0.0}
{"roll":9.77,"pitch":73.89,"heading":-4.4,"pressure_altitude":317.77,"temp":40.87,"delta":4.0,"iso8601":"2017-08-05T23:16:53Z","agl":30.3,"acceleration":3.0332,"latitude":35.4868553,"longitude":-85.9581052,"speed":0.0,"gps_altitude":0.0,"phase":1,"apogee_cause":4,"main_alt":0.0}
{"roll":10.4,"pitch":71.13,"heading":-4.5,"pressure_altitude":320.32,"temp":40.87,"delta":4.0,"iso8601":"2017-08-05T23:16:53Z","agl":32.8,"acceleration":3.0327,"latitude":35.486853,"longitude":-85.9581048,"speed":0.0,"gps_altitude":0.0,"phase":1,"apogee_cause":4,"main_alt":0.0}
{"roll":11.02,"pitch":68.84,"heading":-4.67,"pressure_altitude":322.4,"temp":40.87,"delta":4.0,"iso8601":"2017-08-05T23:16:53Z","agl":34.9,"acceleration":3.0337,"latitude":35.4868507,"longitude":-85.9581045,"speed":0.0,"gps_altitude":0.0,"phase":1,"apogee_cause":4,"main_alt":0.0}
{"roll":11.55,"pitch":67.37,"heading":-4.92,"pressure_altitude":325.52,"temp":40.88,"delta":5.0,"iso8601":"2017-08-05T23:16:53Z","agl":38.0,"acceleration":3.0358,"latitude":35.4868484,"longitude":-85.9581042,"speed":0.0,"gps_altitude":0.0,"phase":1,"apogee_cause":4,"main_alt":0.0}
{"roll":11.97,"pitch":66.85,"heading":-5.31,"pressure_altitude":328.06,"temp":40.88,"delta":5.0,"iso8601":"2017-08-05T23:16:53Z","agl":40.6,"acceleration":3.0407,"latitude":35.4868461,"longitude":-85.9581038,"speed":0.0,"gps_altitude":0.0,"phase":1,"apogee_cause":4,"main_alt":0.0}
{"roll":12.26,"pitch":67.15,"heading":-5.82,"pressure_altitude":331.57,"temp":40.87,"delta":5.0,"iso8601":"2017-08-05T23:16:53Z","agl":44.1,"acceleration":3.0465,"latitude":35.4868438,"longitude":-85.958103500000007,"speed":0.0,"gps_altitude":0.0,"phase":1,"apogee_cause":4,"main_alt":0.0}
{"roll":12.4,"pitch":68.37,"heading":-6.49,"pressure_altitude":334.44,"temp":40.87,"delta":5.0,"iso8601":"2017-08-05T23:16:53Z","agl":46.9,"acceleration":3.0549,"latitude":35.4868415,"longitude":-85.9581031,"speed":0.0,"gps_altitude":0.0,"phase":1,"apogee_cause":4,"main_alt":0.0}
{"roll":12.44,"pitch":69.89,"heading":-7.17,"pressure_altitude":336.79,"temp":40.87,"delta":5.0,"iso8601":"2017-08-05T23:16:53Z","agl":49.3,"acceleration":3.0643,"latitude":35.4868392,"longitude":-85.9581028,"speed":0.0,"gps_altitude":0.0,"phase":1,"apogee_cause":4,"main_alt":0.0}
{"roll":12.37,"pitch":71.82,"heading":-7.94,"pressure_altitude":339.34,"temp":40.88,"delta":5.0,"iso8601":"2017-08-05T23:16:54Z","agl":51.8,"acceleration":3.0731,"latitude":35.4868369,"longitude":-85.9581025,"speed":0.0,"gps_altitude":0.0,"phase":1,"apogee_cause":4,"main_alt":0.0}
{"roll":12.28,"pitch":73.62,"heading":-8.68,"pressure_altitude":341.43,"temp":40.88,"delta":5.0,"iso8601":"2017-08-05T23:16:54Z","agl":53.9,"acceleration":3.0837,"latitude":35.4868346,"longitude":-85.9581021,"speed":0.0,"gps_altitude":0.0,"phase":1,"apogee_cause":4,"main_alt":0.0}
{"roll":12.22,"pitch":75.02,"heading":-9.35,"pressure_altitude":343.14,"temp":40.88,"delta":5.0,"iso8601":"2017-08-05T23:16:54Z","agl":55.6,"acceleration":3.0941,"latitude":35.4868323,"longitude":-85.9581018,"speed":0.0,"gps_altitude":0.0,"phase":1,"apogee_cause":4,"main_alt":0.0}
{"roll":12.24,"pitch":75.78,"heading":-9.87,"pressure_altitude":345.52,"temp":40.87,"delta":5.0,"iso8601":"2017-08-05T23:16:54Z","agl":58.0,"acceleration":3.106,"latitude":35.48683,"longitude":-85.9581014,"speed":0.0,"gps_altitude":0.0,"phase":1,"apogee_cause":4,"main_alt":0.0}
{"roll":12.43,"pitch":75.64,"heading":-10.22,"pressure_altitude":347.47,"temp":40.87,"delta":5.0,"iso8601":"2017-08-05T23:16:54Z","agl":60.0,"acceleration":3.1177,"latitude":35.4868277,"longitude":-85.9581011,"speed":0.0,"gps_altitude":0.0,"phase":1,"apogee_cause":4,"main_alt":0.0}
{"roll":12.77,"pitch":74.64,"heading":-10.38,"pressure_altitude":350.4,"temp":40.87,"delta":5.0,"iso8601":"2017-08-05T23:16:54Z","agl":62.9,"acceleration":3.1269,"latitude":35.4868254,"longitude":-85.9581008,"speed":0.0,"gps_altitude":0.0,"phase":1,"apogee_cause":4,"main_alt":0.0}
{"roll":13.25,"pitch":72.87,"heading":-10.35,"pressure_altitude":352.79,"temp":40.87,"delta":5.0,"iso8601":"2017-08-05T23:16:54Z","agl":65.3,"acceleration":3.1359,"latitude":35.486823,"longitude":-85.9581004,"speed":0.0,"gps_altitude":0.0,"phase":1,"apogee_cause":4,"main_alt":0.0}
{"roll":13.91,"pitch":70.19,"heading":-10.11,"pressure_altitude":354.76,"temp":40.87,"delta":5.0,"iso8601":"2017-08-05T23:16:54Z","agl":67.3,"acceleration":3.1438,"latitude":35.4868207,"longitude":-85.9581001,"speed":0.0,"gps_altitude":0.0,"phase":1,"apogee_cause":4,"main_alt":0.0}
{"roll":14.63,"pitch":67.11,"heading":-9.73,"pressure_altitude":358.39,"temp":40.87,"delta":5.0,"iso8601":"2017-08-05T23:16:54Z","agl":70.9,"acceleration":3.1512,"latitude":35.4868184,"longitude":-85.9580998,"speed":0.0,"gps_altitude":0.0,"phase":1,"apogee_cause":4,"main_alt":0.0}
{"roll":15.25,"pitch":64.42,"heading":-9.38,"pressure_altitude":361.36,"temp":40.87,"delta":5.0,"iso8601":"2017-08-05T23:16:54Z","agl":73.9,"acceleration":3.1576,"latitude":35.4868161,"longitude":-85.9580994,"speed":0.0,"gps_altitude":0.0,"phase":1,"apogee_cause":4,"main_alt":0.0}
{"roll":15.72,"pitch":62.46,"heading":-9.14,"pressure_altitude":365.61,"temp":40.87,"delta":5.0,"iso8601":"2017-08-05T23:16:54Z","agl":78.1,"acceleration":3.1638,"latitude":35.4868138,"longitude":-85.9580991,"speed":0.0,"gps_altitude":0.0,"phase":1,"apogee_cause":4,"main_alt":0.0}
{"roll":15.97,"pitch":61.5,"heading":-9.12,"pressure_altitude":369.09,"temp":40.87,"delta":5.0,"iso8601":"2017-08-05T23:16:54Z","agl":81.6,"acceleration":3.1696,"latitude":35.4868115,"longitude":-85.9580987,"speed":0.0,"gps_altitude":0.0,"phase":1,"apogee_cause":4,"main_alt":0.0}
{"roll":15.96,"pitch":61.82,"heading":-9.38,"pressure_altitude":371.94,"temp":40.87,"delta":5.0,"iso8601":"2017-08-05T23:16:54Z","agl":84.4,"acceleration":3.1817,"latitude":35.4868092,"longitude":-85.9580984,"speed":0.0,"gps_altitude":0.0,"phase":1,"apogee_cause":4,"main_alt":0.0}
{"roll":15.78,"pitch":63.01,"heading":-9.84,"pressure_altitude":375.27,"temp":40.87,"delta":5.0,"iso8601":"2017-08-05T23:16:54Z","agl":87.8,"acceleration":3.1987,"latitude":35.4868069,"longitude":-85.9580981,"speed":0.0,"gps_altitude":0.0,"phase":1,"apogee_cause":4,"main_alt":0.0}
{"roll":15.49,"pitch":64.62,"heading":-10.39,"pressure_altitude":378.0,"temp":40.87,"delta":5.0,"iso8601":"2017-08-05T23:16:54Z","agl":90.5,"acceleration":3.2112,"latitude":35.4868046,"longitude":-85.9580977,"speed":0.0,"gps_altitude":0.0,"phase":1,"apogee_cause":4,"main_alt":0.0}
{"roll":15.22,"pitch":66.08,"heading":-10.96,"pressure_altitude":380.24,"temp":40.87,"delta":5.0,"iso8601":"2017-08-05T23:16:54Z","agl":92.7,"acceleration":3.2157,"latitude":35.4868023,"longitude":-85.9580974,"speed":0.0,"gps_altitude":0.0,"phase":1,"apogee_cause":4,"main_alt":0.0}
{"roll":15.1,"pitch":66.81,"heading":-11.35,"pressure_altitude":382.68,"temp":40.87,"delta":5.0,"iso8601":"2017-08-05T23:16:54Z","agl":95.2,"acceleration":3.2263,"latitude":35.4868,"longitude":-85.958097,"speed":0.0,"gps_altitude":0.0,"phase":1,"apogee_cause":4,"main_alt":0.0}
{"roll":15.27,"pitch":66.34,"heading":-11.47,"pressure_altitude":384.67,"temp":40.87,"delta":5.0,"iso8601":"2017-08-05T23:16:54Z","agl":97.2,"acceleration":3.2396,"latitude":35.4867977,"longitude":-85.9580967,"speed":0.0,"gps_altitude":0.0,"phase":1,"apogee_cause":4,"main_alt":0.0}
{"roll":15.63,"pitch":65.03,"heading":-11.39,"pressure_altitude":387.97,"temp":40.87,"delta":5.0,"iso8601":"2017-08-05T23:16:54Z","agl":100.5,"acceleration":3.2484,"latitude":35.4867954,"longitude":-85.9580964,"speed":0.0,"gps_altitude":0.0,"phase":1,"apogee_cause":4,"main_alt":0.0}
{"roll":16.37,"pitch":62.13,"heading":-10.96,"pressure_altitude":390.67,"temp":40.87,"delta":5.0,"iso8601":"2017-08-05T23:16:54Z","agl":103.2,"acceleration":3.2486,"latitude":35.4867931,"longitude":-85.958096,"speed":0.0,"gps_altitude":0.0,"phase":2,"apogee_cause":4,"main_alt":0.0}
{"roll":17.16,"pitch":58.99,"heading":-10.42,"pressure_altitude":392.88,"temp":40.87,"delta":5.0,"iso8601":"2017-08-05T23:16:54Z","agl":105.4,"acceleration":3.2474,"latitude":35.4867908,"longitude":-85.9580957,"speed":0.0,"gps_altitude":0.0,"phase":2,"apogee_cause":4,"main_alt":0.0}
{"roll":17.94,"pitch":55.87,"heading":-9.85,"pressure_altitude":397.31,"temp":40.87,"delta":5.0,"iso8601":"2017-08-05T23:16:54Z","agl":109.8,"acceleration":3.246,"latitude":35.4867884,"longitude":-85.9580954,"speed":0.0,"gps_altitude":0.0,"phase":2,"apogee_cause":4,"main_alt":0.0}
{"roll":18.5,"pitch":53.56,"heading":-9.43,"pressure_altitude":400.94,"temp":40.87,"delta":5.0,"iso8601":"2017-08-05T23:16:54Z","agl":113.4,"acceleration":3.2395,"latitude":35.4867861,"longitude":-85.958095,"speed":0.0,"gps_altitude":0.0,"phase":2,"apogee_cause":4,"main_alt":0.0}
{"roll":18.82,"pitch":52.18,"heading":-9.22,"pressure_altitude":406.03,"temp":40.87,"delta":5.0,"iso8601":"2017-08-05T23:16:54Z","agl":118.5,"acceleration":3.2373,"latitude":35.4867838,"longitude":-85.9580947,"speed":0.0,"gps_altitude":0.0,"phase":2,"apogee_cause":4,"main_alt":0.0}
{"roll":18.9,"pitch":51.82,"heading":-9.27,"pressure_altitude":410.19,"temp":40.87,"delta":5.0,"iso8601":"2017-08-05T23:16:54Z","agl":122.7,"acceleration":3.2377,"latitude":35.4867815,"longitude":-85.9580943,"speed":0.0,"gps_altitude":0.0,"phase":2,"apogee_cause":4,"main_alt":0.0}
{"roll":18.8,"pitch":52.23,"heading":-9.5,"pressure_altitude":413.6,"temp":40.87,"delta":5.0,"iso8601":"2017-08-05T23:16:54Z","agl":126.1,"acceleration":3.2369,"latitude":35.4867792,"longitude":-85.958094,"speed":0.0,"gps_altitude":0.0,"phase":2,"apogee_cause":4,"main_alt":0.0}
{"roll":18.51,"pitch":53.32,"heading":-9.89,"pressure_altitude":416.97,"temp":40.87,"delta":5.0,"iso8601":"2017-08-05T23:16:54Z","agl":129.5,"acceleration":3.2301,"latitude":35.4867769,"longitude":-85.9580937,"speed":0.0,"gps_altitude":0.0,"phase":2,"apogee_cause":4,"main_alt":0.0}
{"roll":18.1,"pitch":54.72,"heading":-10.32,"pressure_altitude":419.73,"temp":40.87,"delta":5.0,"iso8601":"2017-08-05T23:16:54Z","agl":132.2,"acceleration":3.2185,"latitude":35.4867746,"longitude":-85.9580933,"speed":0.0,"gps_altitude":0.0,"phase":2,"apogee_cause":4,"main_alt":0.0}
{"roll":17.68,"pitch":56.05,"heading":-10.65,"pressure_altitude":422.28,"temp":40.87,"delta":5.0,"iso8601":"2017-08-05T23:16:54Z","agl":134.8,"acceleration":3.2033,"latitude":35.4867723,"longitude":-85.958093,"speed":0.0,"gps_altitude":0.0,"phase":2,"apogee_cause":4,"main_alt":0.0}
{"roll":17.28,"pitch":57.17,"heading":-10.83,"pressure_altitude":424.37,"temp":40.87,"delta":5.0,"iso8601":"2017-08-05T23:16:54Z","agl":136.9,"acceleration":3.1866,"latitude":35.48677,"longitude":-85.9580926,"speed":0.0,"gps_altitude":0.0,"phase":2,"apogee_cause":4,"main_alt":0.0}
{"roll":16.93,"pitch":57.96,"heading":-10.85,"pressure_altitude":426.09,"temp":40.87,"delta":5.0,"iso8601":"2017-08-05T23:16:54Z","agl":138.6,"acceleration":3.1679,"latitude":35.4867677,"longitude":-85.9580923,"speed":0.0,"gps_altitude":0.0,"phase":2,"apogee_cause":4,"main_alt":0.0}
{"roll":16.61,"pitch":58.46,"heading":-10.7,"pressure_altitude":428.2,"temp":40.87,"delta":6.0,"iso8601":"2017-08-05T23:16:54Z","agl":140.7,"acceleration":3.1456,"latitude":35.4867654,"longitude":-85.958092,"speed":0.0,"gps_altitude":0.0,"phase":2,"apogee_cause":4,"main_alt":0.0}
{"roll":16.35,"pitch":58.75,"heading":-10.46,"pressure_altitude":429.93,"temp":40.87,"delta":6.0,"iso8601":"2017-08-05T23:16:54Z","agl":142.4,"acceleration":3.1256,"latitude":35.4867631,"longitude":-85.9580916,"speed":0.0,"gps_altitude":0.0,"phase":2,"apogee_cause":4,"main_alt":0.0}
{"roll":16.07,"pitch":58.95,"heading":-10.05,"pressure_altitude":432.19,"temp":40.86,"delta":6.0,"iso8601":"2017-08-05T23:16:54Z","agl":144.7,"acceleration":3.1052,"latitude":35.4867608,"longitude":-85.9580913,"speed":0.0,"gps_altitude":0.0,"phase":2,"apogee_cause":4,"main_alt":0.0}
{"roll":15.79,"pitch":59.17,"heading":-9.61,"pressure_altitude":434.04,"temp":40.86,"delta":6.0,"iso8601":"2017-08-05T23:16:54Z","agl":146.5,"acceleration":3.064,"latitude":35.4867585,"longitude":-85.958091,"speed":0.0,"gps_altitude":0.0,"phase":2,"apogee_cause":4,"main_alt":0.0}
{"roll":15.49,"pitch":59.52,"heading":-9.17,"pressure_altitude":435.55,"temp":40.86,"delta":6.0,"iso8601":"2017-08-05T23:16:54Z","agl":148.0,"acceleration":2.7946,"latitude":35.4867562,"longitude":-85.9580906,"speed":0.0,"gps_altitude":0.0,"phase":2,"apogee_cause":4,"main_alt":0.0}
{"roll":15.19,"pitch":60.04,"heading":-8.74,"pressure_altitude":437.82,"temp":40.87,"delta":6.0,"iso8601":"2017-08-05T23:16:55Z","agl":150.3,"acceleration":2.4294,"latitude":35.4867539,"longitude":-85.9580903,"speed":0.0,"gps_altitude":0.0,"phase":2,"apogee_cause":4,"main_alt":0.0}
{"roll":14.89,"pitch":60.69,"heading":-8.36,"pressure_altitude":439.67,"temp":40.87,"delta":6.0,"iso8601":"2017-08-05T23:16:55Z","agl":152.2,"acceleration":2.0935,"latitude":35.4867515,"longitude":-85.9580899,"speed":0.0,"gps_altitude":0.0,"phase":2,"apogee_cause":4,"main_alt":0.0}
{"roll":14.55,"pitch":61.71,"heading":-7.99,"pressure_altitude":441.19,"temp":40.87,"delta":6.0,"iso8601":"2017-08-05T23:16:55Z","agl":153.7,"acceleration":1.7598,"latitude":35.4867492,"longitude":-85.9580896,"speed":0.0,"gps_altitude":0.0,"phase":2,"apogee_cause":4,"main_alt":0.0}
{"roll":14.21,"pitch":63.0,"heading":-7.66,"pressure_altitude":443.64,"temp":40.87,"delta":6.0,"iso8601":"2017-08-05T23:16:55Z","agl":156.1,"acceleration":1.4052,"latitude":35.4867469,"longitude":-85.9580893,"speed":0.0,"gps_altitude":0.0,"phase":2,"apogee_cause":4,"main_alt":0.0}
{"roll":13.86,"pitch":64.69,"heading":-7.38,"pressure_altitude":445.65,"temp":40.87,"delta":6.0,"iso8601":"2017-08-05T23:16:55Z","agl":158.1,"acceleration":1.0432,"latitude":35.4867446,"longitude":-85.9580889,"speed":0.0,"gps_altitude":0.0,"phase":2,"apogee_cause":4,"main_alt":0.0}
{"roll":13.51,"pitch":66.59,"heading":-7.16,"pressure_altitude":447.29,"temp":40.87,"delta":6.0,"iso8601":"2017-08-05T23:16:55Z","agl":159.8,"acceleration":0.6837,"latitude":35.4867423,"longitude":-85.9580886,"speed":0.0,"gps_altitude":0.0,"phase":2,"apogee_cause":4,"main_alt":0.0}
{"roll":13.11,"pitch":69.08,"heading":-7.04,"pressure_altitude":450.36,"temp":40.86,"delta":6.0,"iso8601":"2017-08-05T23:16:55Z","agl":162.9,"acceleration":0.3692,"latitude":35.48674,"longitude":-85.9580883,"speed":0.0,"gps_altitude":0.0,"phase":2,"apogee_cause":4,"main_alt":0.0}
{"roll":12.72,"pitch":71.66,"heading":-7.03,"pressure_altitude":452.87,"temp":40.86,"delta":6.0,"iso8601":"2017-08-05T23:16:55Z","agl":165.4,"acceleration":0.2769,"latitude":35.4867377,"longitude":-85.9580879,"speed":0.0,"gps_altitude":0.0,"phase":2,"apogee_cause":4,"main_alt":0.0}
{"roll":12.37,"pitch":74.4,"heading":-7.14,"pressure_altitude":456.8,"temp":40.87,"delta":6.0,"iso8601":"2017-08-05T23:16:55Z","agl":169.3,"acceleration":0.4343,"latitude":35.4867354,"longitude":-85.9580876,"speed":0.0,"gps_altitude":0.0,"phase":2,"apogee_cause":4,"main_alt":0.0}
