TimeMilliseconds,Heading,Pitch,Roll,Lx,Ly,Lz,Lmag,Gx,Gy,Gz,GpsAltitudeIsValid,GpsAltitudeIsUpdated,GpsAltitudeAge,GpsAltitudeMeters,GpsCourseIsValid,GpsCourseIsUpdated,GpsCourseAge,GpsCourseDeg,GpsDateIsValid,GpsDateIsUpdated,Date Age,GpsTimeIsValid,GpsTimeIsUpdated,GpsTimeAge,Iso8601,HdopIsValid,HdopIsUpdated,HdopAge,HDOP (Horizontal Dilution of Precision),LocationIsVaLid,LocationIsUpdated,Fix Age,LocationLat,LocationLng,LocationRawLatBillionths,LocationRawLngBillionths,SatellitesTrackingIsValid,SatellitesTrackingIsUpdated,SatellitesTrackingAge,GpsSatellitesTrackingValue,GpsSpeedIsValid,GpsSpeedIsUpdated,GpsSpeedAge,Vehicle Speed (knots),Characters Received,Sentences Received,# Checksum Failures,GpsPassedChecksums,Ambient Temperature (*Celcius),Ambient Pressure (Pascal) [filtered],Relative Humidity (%),Altitude (meters) [filtered],Phase
8072092,66.06,2.61,3.56,-0.01,-0.01,-0.01,0.017,-0.44,0.6,9.77,,,,0,,,,,,,262,,,,2017-08-05T23:16:49Z,,,,0,,,,35.487229,-85.95816,,,,,,0,,,,0,1289699,0,61,,40.88,97919.62,28.6,287.46,0
8072117,66.06,2.61,3.56,-0.01,-0.01,-0.01,0.017,-0.44,0.6,9.77,,,,0,,,,,,,289,,,,2017-08-05T23:16:49Z,,,,0,,,,35.487229,-85.95816,,,,,,0,,,,0,1289699,0,61,,40.88,97919.9,28.6,287.43,0
8072146,66.06,2.61,3.56,-0.02,0,-0.02,0.028,-0.44,0.6,9.77,,,,0,,,,,,,319,,,,2017-08-05T23:16:49Z,,,,0,,,,35.487229,-85.95816,,,,,,0,,,,0,1289699,0,61,,40.88,97919.44,28.62,287.47,0
8072178,66.06,2.61,3.56,-0.01,0,0,0.010,-0.44,0.6,9.77,,,,0,,,,,,,349,,,,2017-08-05T23:16:49Z,,,,0,,,,35.487229,-85.95816,,,,,,0,,,,0,1289699,0,61,,40.88,97919.06,28.62,287.51,0
8072204,66.06,2.61,3.56,-0.01,0,-0.02,0.022,-0.44,0.6,9.77,,,,0,,,,,,,375,,,,2017-08-05T23:16:49Z,,,,0,,,,35.487229,-85.95816,,,,,,0,,,,0,1289699,0,61,,40.88,97918.75,28.62,287.53,0
8072232,66.06,2.61,3.56,-0.01,0,-0.02,0.022,-0.44,0.6,9.77,,,,0,,,,,,,401,,,,2017-08-05T23:16:49Z,,,,0,,,,35.487229,-85.95816,,,,,,0,,,,0,1289699,0,61,,40.88,97918.31,28.62,287.57,0
8072260,66.06,2.61,3.56,0,0,-0.02,0.020,-0.44,0.6,9.77,,,,0,,,,,,,431,,,,2017-08-05T23:16:49Z,,,,0,,,,35.487229,-85.95816,,,,,,0,,,,0,1289699,0,61,,40.88,97917.96,28.62,287.6,0
8072285,66.06,2.61,3.56,0,0,-0.02,0.020,-0.44,0.6,9.77,,,,0,,,,,,,458,,,,2017-08-05T23:16:49Z,,,,0,,,,35.487229,-85.95816,,,,,,0,,,,0,1289699,0,61,,40.88,97917.85,28.65,287.61,0
8072320,66.06,2.61,3.56,0,0,-0.01,0.010,-0.44,0.6,9.77,,,,0,,,,,,,491,,,,2017-08-05T23:16:49Z,,,,0,,,,35.487229,-85.95816,,,,,,0,,,,0,1289699,0,61,,40.88,97917.76,28.65,287.62,0
8072346,66.06,2.61,3.56,0,-0.01,0,0.010,-0.44,0.6,9.77,,,,0,,,,,,,519,,,,2017-08-05T23:16:49Z,,,,0,,,,35.487229,-85.95816,,,,,,0,,,,0,1289699,0,61,,40.88,97917.69,28.65,287.62,0
8072378,66.06,2.61,3.56,0,0,0,0.000,-0.44,0.6,9.77,,,,0,,,,,,,549,,,,2017-08-05T23:16:49Z,,,,0,,,,35.487229,-85.95816,,,,,,0,,,,0,1289699,0,61,,40.89,97917.84,28.66,287.61,0
8072404,66.06,2.61,3.56,0,0,-0.02,0.020,-0.44,0.6,9.77,,,,0,,,,,,,574,,,,2017-08-05T23:16:49Z,,,,0,,,,35.487229,-85.95816,,,,,,0,,,,0,1289699,0,61,,40.89,97917.95,28.66,287.6,0
8072429,66.06,2.61,3.56,0,0,-0.02,0.020,-0.44,0.6,9.77,,,,0,,,,,,,599,,,,2017-08-05T23:16:49Z,,,,0,,,,35.487229,-85.95816,,,,,,0,,,,0,1289699,0,61,,40.88,97918.1,28.65,287.59,0
8072458,66.06,2.61,3.56,0,0,-0.03,0.030,-0.44,0.6,9.77,,,,0,,,,,,,630,,,,2017-08-05T23:16:49Z,,,,0,,,,35.487229,-85.95816,,,,,,0,,,,0,1289699,0,61,,40.88,97918.22,28.65,287.58,0
8072487,66.06,2.61,3.56,0,0,-0.02,0.020,-0.44,0.6,9.77,,,,0,,,,,,,659,,,,2017-08-05T23:16:49Z,,,,0,,,,35.487229,-85.95816,,,,,,0,,,,0,1289699,0,61,,40.88,97918.31,28.65,287.57,0
8072518,66.06,2.61,3.56,0,0,-0.03,0.030,-0.44,0.6,9.77,,,,0,,,,,,,690,,,,2017-08-05T23:16:49Z,,,,0,,,,35.487229,-85.95816,,,,,,0,,,,0,1289699,0,61,,40.88,97918.46,28.62,287.56,0
8072547,66.06,2.61,3.56,0,0,-0.02,0.020,-0.44,0.6,9.77,,,,0,,,,,,,719,,,,2017-08-05T23:16:49Z,,,,0,,,,35.487229,-85.95816,,,,,,0,,,,0,1289699,0,61,,40.88,97918.59,28.62,287.55,0
8072575,66.06,2.61,3.56,0,0,-0.02,0.020,-0.44,0.6,9.77,,,,0,,,,,,,744,,,,2017-08-05T23:16:49Z,,,,0,,,,35.487229,-85.95816,,,,,,0,,,,0,1289699,0,61,,40.88,97918.18,28.62,287.58,0
8072595,66.06,2.61,3.56,0,0,0,0.000,-0.44,0.6,9.77,,,,0,,,,,,,768,,,,2017-08-05T23:16:49Z,,,,0,,,,35.487229,-85.95816,,,,,,0,,,,0,1289699,0,61,,40.88,97917.84,28.62,287.61,0
8072625,66.06,2.61,3.56,0,0,0,0.000,-0.44,0.6,9.77,,,,0,,,,,,,794,,,,2017-08-05T23:16:49Z,,,,0,,,,35.487229,-85.95816,,,,,,0,,,,0,1289699,0,61,,40.88,97917.58,28.62,287.63,0
8072654,66.06,2.61,3.56,0,-0.01,-0.02,0.022,-0.44,0.6,9.77,,,,0,,,,,,,824,,,,2017-08-05T23:16:49Z,,,,0,,,,35.487229,-85.95816,,,,,,0,,,,0,1289699,0,61,,40.88,97917.53,28.65,287.64,0
8072679,66.06,2.61,3.56,0,-0.02,-0.02,0.028,-0.44,0.6,9.77,,,,0,,,,,,,850,,,,2017-08-05T23:16:49Z,,,,0,,,,35.487229,-85.95816,,,,,,0,,,,0,1289699,0,61,,40.88,97917.5,28.65,287.64,0
8072710,66.06,2.61,3.56,0,-0.02,-0.02,0.028,-0.44,0.6,9.77,,,,0,,,,,,,880,,,,2017-08-05T23:16:49Z,,,,0,,,,35.487229,-85.95816,,,,,,0,,,,0,1289707,0,61,,40.88,97917.8,28.62,287.61,0
8072735,66.06,2.61,3.56,0,-0.02,-0.01,0.022,-0.44,0.6,9.77,,,,0,,,,,,,908,,,,2017-08-05T23:16:49Z,,,,0,,,,35.487229,-85.95816,,,,,,0,,,,0,1289731,0,61,,40.88,97918.04,28.62,287.59,0
8072769,66.06,2.61,3.56,-0.01,-0.02,-0.01,0.024,-0.44,0.6,9.77,,,,0,,,,,,,940,,,,2017-08-05T23:16:50Z,,,,0,,,,35.487229,-85.95816,,,,,,0,,,,0,1289767,0,61,,40.88,97918.24,28.62,287.58,0
8072795,66.06,2.61,3.56,-0.01,-0.02,-0.01,0.024,-0.44,0.6,9.77,,,,0,,,,,,,968,,,,2017-08-05T23:16:50Z,,,,0,,,,35.487229,-85.95816,,,,,,0,,,,0,1289791,0,61,,40.88,97918.66,28.63,287.54,0
8072825,66.06,2.61,3.56,-0.02,-0.02,0,0.028,-0.44,0.6,9.77,,,,0,,,,,,,4,,,,2017-08-05T23:16:50Z,,,,0,,,,35.487229,-85.95816,,,,,,0,,,,0,1289819,0,61,,40.88,97918.99,28.63,287.51,0
8072853,66.06,2.61,3.56,-0.02,-0.02,-0.02,0.035,-0.44,0.6,9.77,,,,0,,,,,,,34,,,,2017-08-05T23:16:50Z,,,,0,,,,35.487229,-85.95816,,,,,,0,,,,0,1289843,0,61,,40.88,97918.58,28.62,287.55,0
8072881,66.06,2.61,3.56,-0.02,-0.02,-0.01,0.030,-0.44,0.6,9.77,,,,0,,,,,,,61,,,,2017-08-05T23:16:50Z,,,,0,,,,35.487229,-85.95816,,,,,,0,,,,0,1289855,0,61,,40.88,97918.24,28.62,287.58,0
8072910,66.06,2.61,3.56,-0.02,-0.01,-0.02,0.030,-0.44,0.6,9.77,,,,0,,,,,,,90,,,,2017-08-05T23:16:50Z,,,,0,,,,35.487229,-85.95816,,,,,,0,,,,0,1289855,0,61,,40.88,97917.97,28.62,287.6,0
8072936,66.06,2.61,3.56,-0.02,-0.01,-0.01,0.024,-0.44,0.6,9.77,,,,0,,,,,,,118,,,,2017-08-05T23:16:50Z,,,,0,,,,35.487229,-85.95816,,,,,,0,,,,0,1289855,0,61,,40.88,97917.92,28.61,287.6,0
8072968,66.06,2.61,3.56,-0.02,-0.01,-0.01,0.024,-0.44,0.6,9.77,,,,0,,,,,,,150,,,,2017-08-05T23:16:50Z,,,,0,,,,35.487229,-85.95816,,,,,,0,,,,0,1289855,0,61,,40.88,97917.89,28.61,287.61,0
8072996,66.06,2.61,3.56,-0.01,-0.01,0,0.014,-0.44,0.6,9.77,,,,0,,,,,,,179,,,,2017-08-05T23:16:50Z,,,,0,,,,35.487229,-85.95816,,,,,,0,,,,0,1289855,0,61,,40.89,97918,28.62,287.6,0
8073023,66.06,2.61,3.56,-0.01,0,-0.01,0.014,-0.44,0.6,9.77,,,,0,,,,,,,202,,,,2017-08-05T23:16:50Z,,,,0,,,,35.487229,-85.95816,,,,,,0,,,,0,1289855,0,61,,40.89,97918.09,28.62,287.59,0
8073055,66.06,2.61,3.56,0,0,-0.03,0.030,-0.44,0.6,9.77,,,,0,,,,,,,237,,,,2017-08-05T23:16:50Z,,,,0,,,,35.487229,-85.95816,,,,,,0,,,,0,1289855,0,61,,40.89,97918.16,28.62,287.58,0
8073084,66.06,2.61,3.56,0,0,-0.02,0.020,-0.44,0.6,9.77,,,,0,,,,,,,265,,,,2017-08-05T23:16:50Z,,,,0,,,,35.487229,-85.95816,,,,,,0,,,,0,1289855,0,61,,40.88,97917.84,28.61,287.61,0
8073114,66.06,2.61,3.56,0,0,-0.02,0.020,-0.44,0.6,9.77,,,,0,,,,,,,296,,,,2017-08-05T23:16:50Z,,,,0,,,,35.487229,-85.95816,,,,,,0,,,,0,1289855,0,61,,40.88,97917.56,28.61,287.63,0
8073141,66.06,2.61,3.56,0,0,-0.02,0.020,-0.44,0.6,9.77,,,,0,,,,,,,321,,,,2017-08-05T23:16:50Z,,,,0,,,,35.487229,-85.95816,,,,,,0,,,,0,1289855,0,61,,40.88,97918.16,28.62,287.58,0
8073170,66.06,2.61,3.56,0,0,-0.02,0.020,-0.44,0.6,9.77,,,,0,,,,,,,350,,,,2017-08-05T23:16:50Z,,,,0,,,,35.487229,-85.95816,,,,,,0,,,,0,1289855,0,61,,40.88,97918.66,28.62,287.54,0
8073195,66.06,2.61,3.56,0,0,-0.01,0.010,-0.44,0.6,9.77,,,,0,,,,,,,378,,,,2017-08-05T23:16:50Z,,,,0,,,,35.487229,-85.95816,,,,,,0,,,,0,1289855,0,61,,40.88,97919.06,28.62,287.51,0
8073222,66.06,2.61,3.56,0,0,-0.01,0.010,-0.44,0.6,9.77,,,,0,,,,,,,402,,,,2017-08-05T23:16:50Z,,,,0,,,,35.487229,-85.95816,,,,,,0,,,,0,1289855,0,61,,40.89,97919.72,28.62,287.45,0
8073247,66.06,2.61,3.56,0,0,0,0.000,-0.44,0.6,9.77,,,,0,,,,,,,429,,,,2017-08-05T23:16:50Z,,,,0,,,,35.487229,-85.95816,,,,,,0,,,,0,1289855,0,61,,40.89,97920.26,28.62,287.4,0
8073272,66.06,2.61,3.56,0,0,0,0.000,-0.44,0.6,9.77,,,,0,,,,,,,452,,,,2017-08-05T23:16:50Z,,,,0,,,,35.487229,-85.95816,,,,,,0,,,,0,1289855,0,61,,40.89,97920.7,28.62,287.37,0
8073296,66.06,2.61,3.56,-0.01,0,0,0.010,-0.44,0.6,9.77,,,,0,,,,,,,478,,,,2017-08-05T23:16:50Z,,,,0,,,,35.487229,-85.95816,,,,,,0,,,,0,1289855,0,61,,40.89,97921.3,28.6,287.31,0
8073321,66.06,2.61,3.56,-0.01,0,0,0.010,-0.44,0.6,9.77,,,,0,,,,,,,501,,,,2017-08-05T23:16:50Z,,,,0,,,,35.487229,-85.95816,,,,,,0,,,,0,1289855,0,61,,40.89,97921.8,28.6,287.27,0
8073345,66.06,2.61,3.56,-0.01,-0.01,0,0.014,-0.44,0.6,9.77,,,,0,,,,,,,528,,,,2017-08-05T23:16:50Z,,,,0,,,,35.487229,-85.95816,,,,,,0,,,,0,1289855,0,61,,40.88,97920.82,28.62,287.36,0
8073369,66.06,2.61,3.56,-0.01,-0.01,0,0.014,-0.44,0.6,9.77,,,,0,,,,,,,550,,,,2017-08-05T23:16:50Z,,,,0,,,,35.487229,-85.95816,,,,,,0,,,,0,1289855,0,61,,40.88,97920.01,28.62,287.43,0
8073394,66.06,2.61,3.56,0,0,0,0.000,-0.44,0.6,9.77,,,,0,,,,,,,575,,,,2017-08-05T23:16:50Z,,,,0,,,,35.487229,-85.95816,,,,,,0,,,,0,1289855,0,61,,40.88,97919.34,28.62,287.48,0
8073423,66.06,2.61,3.56,-0.01,-0.01,0,0.014,-0.44,0.6,9.77,,,,0,,,,,,,602,,,,2017-08-05T23:16:50Z,,,,0,,,,35.487229,-85.95816,,,,,,0,,,,0,1289855,0,61,,40.88,97919.38,28.61,287.48,0
8073443,66.06,2.61,3.56,-0.01,-0.02,0,0.022,-0.44,0.6,9.77,,,,0,,,,,,,624,,,,2017-08-05T23:16:50Z,,,,0,,,,35.487229,-85.95816,,,,,,0,,,,0,1289855,0,61,,40.88,97919.4,28.61,287.48,0
8073468,66.06,2.61,3.56,-0.01,-0.02,-0.01,0.024,-0.44,0.6,9.77,,,,0,,,,,,,650,,,,2017-08-05T23:16:50Z,,,,0,,,,35.487229,-85.95816,,,,,,0,,,,0,1289855,0,61,,40.88,97919.41,28.61,287.48,0
8073492,66.06,2.61,3.56,-0.01,-0.01,0,0.014,-0.44,0.6,9.77,,,,0,,,,,,,672,,,,2017-08-05T23:16:50Z,,,,0,,,,35.487229,-85.95816,,,,,,0,,,,0,1289855,0,61,,40.88,97919.43,28.62,287.48,0
8073521,66.06,2.61,3.56,-0.01,-0.02,0,0.022,-0.44,0.6,9.77,,,,0,,,,,,,701,,,,2017-08-05T23:16:50Z,,,,0,,,,35.487229,-85.95816,,,,,,0,,,,0,1289855,0,61,,40.88,97919.45,28.62,287.47,0
8073545,66.06,2.61,3.56,-0.01,-0.01,0,0.014,-0.44,0.6,9.77,,,,0,,,,,,,728,,,,2017-08-05T23:16:50Z,,,,0,,,,35.487229,-85.95816,,,,,,0,,,,0,1289855,0,61,,40.88,97919.45,28.62,287.47,0
8073575,66.06,2.61,3.56,-0.02,-0.01,0,0.022,-0.44,0.6,9.77,,,,0,,,,,,,754,,,,2017-08-05T23:16:50Z,,,,0,,,,35.487229,-85.95816,,,,,,0,,,,0,1289855,0,61,,40.88,97918.64,28.61,287.54,0
8073600,66.06,2.61,3.56,-0.02,-0.01,-0.02,0.030,-0.44,0.6,9.77,,,,0,,,,,,,780,,,,2017-08-05T23:16:50Z,,,,0,,,,35.487229,-85.95816,,,,,,0,,,,0,1289855,0,61,,40.88,97917.97,28.61,287.6,0
8073625,66.06,2.61,3.56,-0.01,-0.02,-0.02,0.030,-0.44,0.6,9.77,,,,0,,,,,,,804,,,,2017-08-05T23:16:50Z,,,,0,,,,35.487229,-85.95816,,,,,,0,,,,0,1289855,0,61,,40.88,97917.42,28.61,287.65,0
8073654,66.06,2.61,3.56,-0.01,-0.02,-0.03,0.037,-0.44,0.6,9.77,,,,0,,,,,,,835,,,,2017-08-05T23:16:50Z,,,,0,,,,35.487229,-85.95816,,,,,,0,,,,0,1289855,0,61,,40.88,97917.8,28.67,287.61,0
8073680,66.06,2.61,3.56,-0.01,-0.01,-0.02,0.024,-0.44,0.6,9.77,,,,0,,,,,,,860,,,,2017-08-05T23:16:50Z,,,,0,,,,35.487229,-85.95816,,,,,,0,,,,0,1289855,0,61,,40.88,97918.11,28.67,287.59,0
8073709,66.06,2.61,3.56,-0.01,-0.02,-0.03,0.037,-0.44,0.6,9.77,,,,0,,,,,,,890,,,,2017-08-05T23:16:50Z,,,,0,,,,35.487229,-85.95816,,,,,,0,,,,0,1289855,0,61,,40.88,97918.8,28.6,287.53,0
8073737,66.06,2.61,3.56,-0.01,-0.01,-0.02,0.024,-0.44,0.6,9.77,,,,0,,,,,,,919,,,,2017-08-05T23:16:50Z,,,,0,,,,35.487229,-85.95816,,,,,,0,,,,0,1289879,0,61,,40.88,97919.37,28.6,287.48,0
8073766,66.06,2.61,3.56,0,-0.01,-0.02,0.022,-0.44,0.6,9.77,,,,0,,,,,,,948,,,,2017-08-05T23:16:51Z,,,,0,,,,35.487229,-85.95816,,,,,,0,,,,0,1289907,0,61,,40.88,97919.58,28.62,287.46,0
8073798,66.06,2.61,3.56,0,-0.01,-0.02,0.022,-0.44,0.6,9.77,,,,0,,,,,,,979,,,,2017-08-05T23:16:51Z,,,,0,,,,35.487229,-85.95816,,,,,,0,,,,0,1289939,0,61,,40.88,97919.75,28.62,287.45,0
8073826,66.06,2.61,3.56,0,-0.01,-0.02,0.022,-0.44,0.6,9.77,,,,0,,,,,,,1006,,,,2017-08-05T23:16:51Z,,,,0,,,,35.487229,-85.95816,,,,,,0,,,,0,1289963,0,61,,40.88,97919.89,28.62,287.44,0
8073855,66.06,2.61,3.56,0,-0.01,-0.03,0.032,-0.44,0.6,9.77,,,,0,,,,,,,1038,,,,2017-08-05T23:16:51Z,,,,0,,,,35.487229,-85.95816,,,,,,0,,,,0,1289991,0,61,,40.88,97919.82,28.6,287.44,0
8073883,66.06,2.61,3.56,0,-0.01,-0.03,0.032,-0.44,0.6,9.77,,,,0,,,,,,,6,,,,2017-08-05T23:16:51Z,,,,0,,,,35.487229,-85.95816,,,,,,0,,,,0,1290019,0,61,,40.88,97919.76,28.6,287.45,0
8073913,66.06,2.61,3.56,0,0,-0.03,0.030,-0.44,0.6,9.77,,,,0,,,,,,,36,,,,2017-08-05T23:16:51Z,,,,0,,,,35.487229,-85.95816,,,,,,0,,,,0,1290037,0,61,,40.88,97919.65,28.56,287.46,0
8073939,66.06,2.61,3.56,0,0,-0.03,0.030,-0.44,0.6,9.77,,,,0,,,,,,,61,,,,2017-08-05T23:16:51Z,,,,0,,,,35.487229,-85.95816,,,,,,0,,,,0,1290037,0,61,,40.88,97919.55,28.56,287.46,0
8073966,66.06,2.61,3.56,-0.01,0,-0.03,0.032,-0.44,0.6,9.77,,,,0,,,,,,,90,,,,2017-08-05T23:16:51Z,,,,0,,,,35.487229,-85.95816,,,,,,0,,,,0,1290037,0,61,,40.88,97919.48,28.56,287.47,0
8074023,66.06,2.61,3.56,-0.01,0,-0.02,0.022,-0.44,0.6,9.77,,,,0,,,,,,,144,,,,2017-08-05T23:16:51Z,,,,0,,,,35.487229,-85.95816,,,,,,0,,,,0,1290037,0,61,,40.88,97919.16,28.61,287.5,0
8074047,66.06,2.61,3.56,-0.01,0,-0.02,0.022,-0.44,0.6,9.77,,,,0,,,,,,,170,,,,2017-08-05T23:16:51Z,,,,0,,,,35.487229,-85.95816,,,,,,0,,,,0,1290037,0,61,,40.88,97918.91,28.61,287.52,0
8074077,66.06,2.61,3.56,-0.01,0,-0.01,0.014,-0.44,0.6,9.77,,,,0,,,,,,,201,,,,2017-08-05T23:16:51Z,,,,0,,,,35.487229,-85.95816,,,,,,0,,,,0,1290037,0,61,,40.88,97918.95,28.62,287.52,0
8074104,66.06,2.61,3.56,-0.01,0,-0.03,0.032,-0.44,0.6,9.77,,,,0,,,,,,,228,,,,2017-08-05T23:16:51Z,,,,0,,,,35.487229,-85.95816,,,,,,0,,,,0,1290037,0,61,,40.88,97918.98,28.62,287.51,0
8074137,66.06,2.61,3.56,-0.01,0,-0.02,0.022,-0.44,0.6,9.77,,,,0,,,,,,,260,,,,2017-08-05T23:16:51Z,,,,0,,,,35.487229,-85.95816,,,,,,0,,,,0,1290037,0,61,,40.88,97918.44,28.59,287.56,0
8074163,66.06,2.61,3.56,-0.01,0,-0.02,0.022,-0.44,0.6,9.77,,,,0,,,,,,,287,,,,2017-08-05T23:16:51Z,,,,0,,,,35.487229,-85.95816,,,,,,0,,,,0,1290037,0,61,,40.88,97917.98,28.59,287.6,0
8074189,66.06,2.61,3.56,-0.01,0,-0.02,0.022,-0.44,0.6,9.77,,,,0,,,,,,,311,,,,2017-08-05T23:16:51Z,,,,0,,,,35.487229,-85.95816,,,,,,0,,,,0,1290037,0,61,,40.88,97917.62,28.59,287.63,0
8074219,66.06,2.61,3.56,-0.01,0,-0.02,0.022,-0.44,0.6,9.77,,,,0,,,,,,,341,,,,2017-08-05T23:16:51Z,,,,0,,,,35.487229,-85.95816,,,,,,0,,,,0,1290037,0,61,,40.88,97917.06,28.61,287.68,0
8074244,66.06,2.61,3.56,-0.01,0,-0.02,0.022,-0.44,0.6,9.77,,,,0,,,,,,,369,,,,2017-08-05T23:16:51Z,,,,0,,,,35.487229,-85.95816,,,,,,0,,,,0,1290037,0,61,,40.88,97916.61,28.61,287.72,0
8074278,66.06,2.61,3.56,-0.01,0,-0.02,0.022,-0.44,0.6,9.77,,,,0,,,,,,,401,,,,2017-08-05T23:16:51Z,,,,0,,,,35.487229,-85.95816,,,,,,0,,,,0,1290037,0,61,,40.88,97916.82,28.61,287.7,0
8074304,66.06,2.61,3.56,0,-0.01,-0.03,0.032,-0.44,0.6,9.77,,,,0,,,,,,,428,,,,2017-08-05T23:16:51Z,,,,0,,,,35.487229,-85.95816,,,,,,0,,,,0,1290037,0,61,,40.88,97916.98,28.61,287.68,0
8074335,66.06,2.61,3.56,0,0,-0.02,0.020,-0.44,0.6,9.77,,,,0,,,,,,,460,,,,2017-08-05T23:16:51Z,,,,0,,,,35.487229,-85.95816,,,,,,0,,,,0,1290037,0,61,,40.88,97917.12,28.65,287.67,0
8074364,66.06,2.61,3.56,0,-0.01,-0.03,0.032,-0.44,0.6,9.77,,,,0,,,,,,,489,,,,2017-08-05T23:16:51Z,,,,0,,,,35.487229,-85.95816,,,,,,0,,,,0,1290037,0,61,,40.88,97917.23,28.65,287.66,0
8074392,66.06,2.61,3.56,-0.01,-0.01,-0.02,0.024,-0.44,0.6,9.77,,,,0,,,,,,,514,,,,2017-08-05T23:16:51Z,,,,0,,,,35.487229,-85.95816,,,,,,0,,,,0,1290037,0,61,,40.88,97917.33,28.65,287.66,0
8074422,66.06,2.61,3.56,-0.01,-0.01,-0.02,0.024,-0.44,0.6,9.77,,,,0,,,,,,,543,,,,2017-08-05T23:16:51Z,,,,0,,,,35.487229,-85.95816,,,,,,0,,,,0,1290037,0,61,,40.88,97917.72,28.6,287.62,0
8074446,66.06,2.61,3.56,-0.01,-0.01,-0.02,0.024,-0.44,0.6,9.77,,,,0,,,,,,,570,,,,2017-08-05T23:16:51Z,,,,0,,,,35.487229,-85.95816,,,,,,0,,,,0,1290037,0,61,,40.88,97918.04,28.6,287.59,0
8074479,66.06,2.61,3.56,-0.01,-0.01,-0.01,0.017,-0.44,0.6,9.77,,,,0,,,,,,,601,,,,2017-08-05T23:16:51Z,,,,0,,,,35.487229,-85.95816,,,,,,0,,,,0,1290037,0,61,,40.88,97918.49,28.66,287.56,0
8074507,66.06,2.61,3.56,-0.01,0,-0.02,0.022,-0.44,0.6,9.77,,,,0,,,,,,,630,,,,2017-08-05T23:16:51Z,,,,0,,,,35.487229,-85.95816,,,,,,0,,,,0,1290037,0,61,,40.88,97918.86,28.66,287.52,0
8074535,66.06,2.61,3.56,-0.01,-0.01,-0.01,0.017,-0.44,0.6,9.77,,,,0,,,,,,,659,,,,2017-08-05T23:16:51Z,,,,0,,,,35.487229,-85.95816,,,,,,0,,,,0,1290037,0,61,,40.88,97919.16,28.66,287.5,0
8074567,66.06,2.61,3.56,0,-0.01,-0.02,0.022,-0.44,0.6,9.77,,,,0,,,,,,,690,,,,2017-08-05T23:16:51Z,,,,0,,,,35.487229,-85.95816,,,,,,0,,,,0,1290037,0,61,,40.88,97919.16,28.65,287.5,0
8074593,66.06,2.61,3.56,0,-0.01,-0.02,0.022,-0.44,0.6,9.77,,,,0,,,,,,,716,,,,2017-08-05T23:16:51Z,,,,0,,,,35.487229,-85.95816,,,,,,0,,,,0,1290037,0,61,,40.88,97919.16,28.65,287.5,0
8074625,66.06,2.61,3.56,0,-0.01,-0.01,0.014,-0.44,0.6,9.77,,,,0,,,,,,,748,,,,2017-08-05T23:16:51Z,,,,0,,,,35.487229,-85.95816,,,,,,0,,,,0,1290037,0,61,,40.88,97918.58,28.61,287.55,0
8074651,66.06,2.61,3.56,0,-0.01,-0.02,0.022,-0.44,0.6,9.77,,,,0,,,,,,,772,,,,2017-08-05T23:16:51Z,,,,0,,,,35.487229,-85.95816,,,,,,0,,,,0,1290037,0,61,,40.88,97918.1,28.61,287.59,0
8074679,66.06,2.61,3.56,0,-0.01,-0.02,0.022,-0.44,0.6,9.77,,,,0,,,,,,,801,,,,2017-08-05T23:16:51Z,,,,0,,,,35.487229,-85.95816,,,,,,0,,,,0,1290037,0,61,,40.88,97917.71,28.61,287.62,0
8074706,66.06,2.61,3.56,0,0,-0.04,0.040,-0.44,0.6,9.77,,,,0,,,,,,,830,,,,2017-08-05T23:16:51Z,,,,0,,,,35.487229,-85.95816,,,,,,0,,,,0,1290037,0,61,,40.88,97917.39,28.63,287.65,0
8074733,66.06,2.61,3.56,0,-0.01,-0.03,0.032,-0.44,0.6,9.77,,,,0,,,,,,,857,,,,2017-08-05T23:16:51Z,,,,0,,,,35.487229,-85.95816,,,,,,0,,,,0,1290061,0,61,,40.88,97917.13,28.63,287.67,0
8074766,66.06,2.61,3.56,0,0,-0.02,0.020,-0.44,0.6,9.77,,,,0,,,,,,,890,,,,2017-08-05T23:16:52Z,,,,0,,,,35.487229,-85.95816,,,,,,0,,,,0,1290093,0,61,,40.88,97917.93,28.6,287.6,0
8074793,66.06,2.61,3.56,0,0,-0.02,0.020,-0.44,0.6,9.77,,,,0,,,,,,,916,,,,2017-08-05T23:16:52Z,,,,0,,,,35.487229,-85.95816,,,,,,0,,,,0,1290117,0,61,,40.88,97918.58,28.6,287.55,0
8074820,66.06,2.61,3.56,-0.01,0,-0.02,0.022,-0.44,0.6,9.77,,,,0,,,,,,,942,,,,2017-08-05T23:16:52Z,,,,0,,,,35.487229,-85.95816,,,,,,0,,,,0,1290141,0,61,,40.88,97919.12,28.6,287.5,0
8074841,66.06,2.61,3.56,-0.01,-0.01,-0.02,0.024,-0.44,0.6,9.77,,,,0,,,,,,,5,,,,2017-08-05T23:16:52Z,,,,0,,,,35.487229,-85.95816,,,,,,0,,,,0,1290161,0,61,,40.88,97918.68,28.57,287.54,0
8074866,66.06,2.61,3.56,-0.01,-0.01,-0.02,0.024,-0.44,0.6,9.77,,,,0,,,,,,,32,,,,2017-08-05T23:16:52Z,,,,0,,,,35.487229,-85.95816,,,,,,0,,,,0,1290185,0,61,,40.88,97918.32,28.57,287.57,0
8074889,66.06,2.61,3.56,-0.02,0,-0.01,0.022,-0.44,0.6,9.77,,,,0,,,,,,,53,,,,2017-08-05T23:16:52Z,,,,0,,,,35.487229,-85.95816,,,,,,0,,,,0,1290193,0,61,,40.88,97918.03,28.57,287.59,0
8074911,66.06,2.61,3.56,-0.02,0,-0.02,0.028,-0.44,0.6,9.77,,,,0,,,,,,,74,,,,2017-08-05T23:16:52Z,,,,0,,,,35.487229,-85.95816,,,,,,0,,,,0,1290193,0,61,,40.88,97917.66,28.63,287.63,0
8074935,66.06,2.61,3.56,-0.02,0,0,0.020,-0.44,0.6,9.77,,,,0,,,,,,,101,,,,2017-08-05T23:16:52Z,,,,0,,,,35.487229,-85.95816,,,,,,0,,,,0,1290193,0,61,,40.88,97917.34,28.63,287.65,0
8074959,66.06,2.61,3.56,-0.01,0,-0.02,0.022,-0.44,0.6,9.77,,,,0,,,,,,,123,,,,2017-08-05T23:16:52Z,,,,0,,,,35.487229,-85.95816,,,,,,0,,,,0,1290193,0,61,,40.88,97917.09,28.63,287.67,0
8074983,66.06,2.61,3.56,-0.01,0,0,0.010,-0.44,0.6,9.77,,,,0,,,,,,,150,,,,2017-08-05T23:16:52Z,,,,0,,,,35.487229,-85.95816,,,,,,0,,,,0,1290193,0,61,,40.88,97917.32,28.61,287.66,0
8075010,66.06,2.61,3.56,-0.01,0,-0.01,0.014,-0.44,0.6,9.77,,,,0,,,,,,,173,,,,2017-08-05T23:16:52Z,,,,0,,,,35.487229,-85.95816,,,,,,0,,,,0,1290193,0,61,,40.88,97917.51,28.61,287.64,0
8075033,66.06,2.61,3.56,-0.01,0,0,0.010,-0.44,0.6,9.77,,,,0,,,,,,,200,,,,2017-08-05T23:16:52Z,,,,0,,,,35.487229,-85.95816,,,,,,0,,,,0,1290193,0,61,,40.88,97917.66,28.61,287.63,0
8075060,66.06,2.61,3.56,-0.01,0,-0.01,0.014,-0.44,0.6,9.77,,,,0,,,,,,,224,,,,2017-08-05T23:16:52Z,,,,0,,,,35.487229,-85.95816,,,,,,0,,,,0,1290193,0,61,,40.88,97918.36,28.59,287.57,0
8075082,66.06,2.61,3.56,-0.01,0,0,0.010,-0.44,0.6,9.77,,,,0,,,,,,,246,,,,2017-08-05T23:16:52Z,,,,0,,,,35.487229,-85.95816,,,,,,0,,,,0,1290193,0,61,,40.88,97918.94,28.59,287.52,0
8075108,66.06,2.61,3.56,-0.01,0,-0.01,0.014,-0.44,0.6,9.77,,,,0,,,,,,,273,,,,2017-08-05T23:16:52Z,,,,0,,,,35.487229,-85.95816,,,,,,0,,,,0,1290193,0,61,,40.88,97919.41,28.59,287.48,0
8075130,66.06,2.61,3.56,0,0,0,0.000,-0.44,0.6,9.77,,,,0,,,,,,,293,,,,2017-08-05T23:16:52Z,,,,0,,,,35.487229,-85.95816,,,,,,0,,,,0,1290193,0,61,,40.88,97918.85,28.65,287.52,0
8075162,66.06,2.61,3.56,0,-0.01,-0.01,0.014,-0.44,0.6,9.77,,,,0,,,,,,,329,,,,2017-08-05T23:16:52Z,,,,0,,,,35.487229,-85.95816,,,,,,0,,,,0,1290193,0,61,,40.88,97918.4,28.65,287.56,0
8075192,66.06,2.61,3.56,0,-0.01,0,0.010,-0.44,0.6,9.77,,,,0,,,,,,,357,,,,2017-08-05T23:16:52Z,,,,0,,,,35.487229,-85.95816,,,,,,0,,,,0,1290193,0,61,,40.88,97918.34,28.59,287.57,0
8075223,66.06,2.61,3.56,0,-0.01,0,0.010,-0.44,0.6,9.77,,,,0,,,,,,,386,,,,2017-08-05T23:16:52Z,,,,0,,,,35.487229,-85.95816,,,,,,0,,,,0,1290193,0,61,,40.88,97918.3,28.59,287.57,0
8075247,66.06,2.61,3.56,0,-0.01,0,0.010,-0.44,0.6,9.77,,,,0,,,,,,,412,,,,2017-08-05T23:16:52Z,,,,0,,,,35.487229,-85.95816,,,,,,0,,,,0,1290193,0,61,,40.88,97918.27,28.59,287.57,0
8075273,66.06,2.61,3.56,0,-0.01,0,0.010,-0.44,0.6,9.77,,,,0,,,,,,,436,,,,2017-08-05T23:16:52Z,,,,0,,,,35.487229,-85.95816,,,,,,0,,,,0,1290193,0,61,,40.88,97917.92,28.59,287.6,0
8075301,66.06,2.61,3.56,0,-0.01,-0.01,0.014,-0.44,0.6,9.77,,,,0,,,,,,,466,,,,2017-08-05T23:16:52Z,,,,0,,,,35.487229,-85.95816,,,,,,0,,,,0,1290193,0,61,,40.88,97917.63,28.59,287.63,0
8075327,66.06,2.61,3.56,0,-0.01,-0.01,0.014,-0.44,0.6,9.77,,,,0,,,,,,,491,,,,2017-08-05T23:16:52Z,,,,0,,,,35.487229,-85.95816,,,,,,0,,,,0,1290193,0,61,,40.88,97917.4,28.59,287.65,0
8075356,66.06,2.61,3.56,0,-0.01,-0.03,0.032,-0.44,0.6,9.77,,,,0,,,,,,,522,,,,2017-08-05T23:16:52Z,,,,0,,,,35.487229,-85.95816,,,,,,0,,,,0,1290193,0,61,,40.88,97917.21,28.59,287.67,0
8075382,66.06,2.61,3.56,0,-0.01,-0.01,0.014,-0.44,0.6,9.77,,,,0,,,,,,,549,,,,2017-08-05T23:16:52Z,,,,0,,,,35.487229,-85.95816,,,,,,0,,,,0,1290193,0,61,,40.88,97917.05,28.59,287.68,0
8075413,66.06,2.61,3.56,0,-0.01,-0.03,0.032,-0.44,0.6,9.77,,,,0,,,,,,,579,,,,2017-08-05T23:16:52Z,,,,0,,,,35.487229,-85.95816,,,,,,0,,,,0,1290193,0,61,,40.88,97917.49,28.57,287.64,0
8075439,66.06,2.61,3.56,0,0,0.06,0.060,-0.44,0.6,9.77,,,,0,,,,,,,603,,,,2017-08-05T23:16:52Z,,,,0,,,,35.487229,-85.95816,,,,,,0,,,,0,1290193,0,61,,40.88,97917.86,28.57,287.61,1
8075460,66.07,2.6,3.56,-0.23,0.36,5.33,5.347,-0.44,0.6,9.77,,,,0,,,,,,,623,,,,2017-08-05T23:16:52Z,,,,0,,,,35.487229,-85.95816,,,,,,0,,,,0,1290193,0,61,,40.88,97918.16,28.57,287.58,1
8075484,66.18,2.57,3.59,-0.17,1.24,9.65,9.731,-0.44,0.6,9.77,,,,0,,,,,,,647,,,,2017-08-05T23:16:52Z,,,,0,,,,35.487229,-85.95816,,,,,,0,,,,0,1290193,0,61,,40.88,97923.05,28.63,287.16,1
8075504,66.63,2.56,3.62,-0.12,2.12,13.18,13.350,-0.44,0.61,9.77,,,,0,,,,,,,671,,,,2017-08-05T23:16:52Z,,,,0,,,,35.487229,-85.95816,,,,,,0,,,,0,1290193,0,61,,40.88,97927.07,28.63,286.82,1
8075538,67.35,2.55,3.66,0.46,2.79,16.08,16.327,-0.43,0.61,9.77,,,,0,,,,,,,702,,,,2017-08-05T23:16:52Z,,,,0,,,,35.487229,-85.95816,,,,,,0,,,,0,1290193,0,61,,40.88,97926.71,28.61,286.85,1
8075563,68.18,2.55,3.69,0.94,3.3,18.45,18.766,-0.43,0.62,9.77,,,,0,,,,,,,729,,,,2017-08-05T23:16:52Z,,,,0,,,,35.487229,-85.95816,,,,,,0,,,,0,1290193,0,61,,40.88,97926.41,28.61,286.88,1
8075595,69.35,2.59,3.73,1.43,3.63,20.4,20.770,-0.44,0.62,9.77,,,,0,,,,,,,761,,,,2017-08-05T23:16:52Z,,,,0,,,,35.487229,-85.95816,,,,,,0,,,,0,1290193,0,61,,40.88,97926.17,28.61,286.9,1
8075623,70.54,2.72,3.79,1.03,4.01,21.99,22.376,-0.45,0.63,9.77,,,,0,,,,,,,787,,,,2017-08-05T23:16:52Z,,,,0,,,,35.487229,-85.95816,,,,,,0,,,,0,1290193,0,61,,40.88,97924.14,28.6,287.07,1
8075647,71.78,2.91,3.92,0.36,4.6,23.29,23.743,-0.47,0.65,9.77,,,,0,,,,,,,812,,,,2017-08-05T23:16:52Z,,,,0,,,,35.487229,-85.95816,,,,,,0,,,,0,1290193,0,61,,40.88,97922.48,28.6,287.21,1
8075674,73.1,3.05,4.07,0.1,5.38,24.36,24.947,-0.49,0.67,9.77,,,,0,,,,,,,837,,,,2017-08-05T23:16:52Z,,,,0,,,,35.487229,-85.95816,,,,,,0,,,,0,1290193,0,61,,40.88,97921.12,28.6,287.33,1
8075698,74.43,3.13,4.19,0.31,5.74,25.24,25.886,-0.5,0.68,9.77,,,,0,,,,,,,862,,,,2017-08-05T23:16:52Z,,,,0,,,,35.487229,-85.95816,,,,,,0,,,,0,1290193,0,61,,40.88,97917.48,28.6,287.64,1
8075728,75.73,3.21,4.26,0.39,5.68,25.95,26.567,-0.51,0.69,9.76,,,,0,,,,,,,891,,,,2017-08-05T23:16:52Z,,,,0,,,,35.487229,-85.95816,,,,,,0,,,,0,1290221,0,61,,40.88,97914.5,28.6,287.9,1
8075752,76.92,3.27,4.33,0.06,5.67,26.54,27.139,-0.52,0.71,9.76,,,,0,,,,,,,918,,,,2017-08-05T23:16:53Z,,,,0,,,,35.487229,-85.95816,,,,,,0,,,,0,1290241,0,61,,40.88,97909.97,28.57,288.29,1
8075785,77.99,3.28,4.44,0,6.1,27.02,27.700,-0.53,0.72,9.76,,,,0,,,,,,,949,,,,2017-08-05T23:16:53Z,,,,0,,,,35.487229,-85.95816,,,,,,0,,,,0,1290273,0,61,,40.88,97906.26,28.57,288.6,1
8075810,78.99,3.25,4.52,0.02,6.09,27.42,28.088,-0.53,0.73,9.76,,,,0,,,,,,,974,,,,2017-08-05T23:16:53Z,,,,0,,,,35.487229,-85.95816,,,,,,0,,,,0,1290297,0,61,,40.88,97903.22,28.57,288.86,1
8075835,79.85,3.19,4.57,-0.03,5.92,27.74,28.365,-0.53,0.74,9.76,,,,0,,,,,,,4,,,,2017-08-05T23:16:53Z,,,,0,,,,35.487229,-85.95816,,,,,,0,,,,0,1290321,0,61,,40.88,97897.7,28.6,289.34,1
8075866,80.79,3.08,4.65,-0.11,5.97,28,28.630,-0.52,0.76,9.76,,,,0,,,,,,,38,,,,2017-08-05T23:16:53Z,,,,0,,,,35.487229,-85.95816,,,,,,0,,,,0,1290349,0,61,,40.88,97893.19,28.6,289.72,1
8075892,81.69,2.94,4.75,-0.11,6.2,28.22,28.893,-0.51,0.77,9.75,,,,0,,,,,,,65,,,,2017-08-05T23:16:53Z,,,,0,,,,35.487229,-85.95816,,,,,,0,,,,0,1290349,0,61,,40.88,97884.88,28.61,290.43,1
8075926,82.6,2.77,4.84,-0.25,6.08,28.4,29.045,-0.49,0.79,9.76,,,,0,,,,,,,96,,,,2017-08-05T23:16:53Z,,,,0,,,,35.487229,-85.95816,,,,,,0,,,,0,1290349,0,61,,40.88,97878.07,28.61,291.02,1
8075950,83.52,2.55,4.92,-0.3,6,28.54,29.165,-0.46,0.8,9.76,,,,0,,,,,,,121,,,,2017-08-05T23:16:53Z,,,,0,,,,35.487229,-85.95816,,,,,,0,,,,0,1290349,0,61,,40.88,97872.49,28.61,291.49,1
8075980,84.45,2.29,5.02,-0.3,6.18,28.66,29.320,-0.43,0.82,9.76,,,,0,,,,,,,149,,,,2017-08-05T23:16:53Z,,,,0,,,,35.487229,-85.95816,,,,,,0,,,,0,1290349,0,61,,40.88,97864.4,28.61,292.19,1
8076004,85.33,2.02,5.11,-0.42,6.2,28.76,29.424,-0.4,0.83,9.76,,,,0,,,,,,,176,,,,2017-08-05T23:16:53Z,,,,0,,,,35.487229,-85.95816,,,,,,0,,,,0,1290349,0,61,,40.88,97857.77,28.61,292.76,1
8076033,86.16,1.73,5.19,-0.53,6.09,28.84,29.481,-0.36,0.85,9.76,,,,0,,,,,,,203,,,,2017-08-05T23:16:53Z,,,,0,,,,35.487229,-85.95816,,,,,,0,,,,0,1290349,0,61,,40.88,97846.34,28.59,293.73,1
8076062,86.98,1.39,5.28,-0.54,6.13,28.9,29.548,-0.32,0.86,9.76,,,,0,,,,,,,233,,,,2017-08-05T23:16:53Z,,,,0,,,,35.487229,-85.95816,,,,,,0,,,,0,1290349,0,61,,40.88,97836.99,28.59,294.53,1
8076090,87.78,1.03,5.37,-0.69,6.16,28.96,29.616,-0.27,0.88,9.76,,,,0,,,,,,,260,,,,2017-08-05T23:16:53Z,,,,0,,,,35.487229,-85.95816,,,,,,0,,,,0,1290349,0,61,,40.88,97829.34,28.59,295.19,1
8076119,88.52,0.63,5.47,-0.83,6.07,29,29.640,-0.22,0.89,9.76,,,,0,,,,,,,289,,,,2017-08-05T23:16:53Z,,,,0,,,,35.487229,-85.95816,,,,,,0,,,,0,1290349,0,61,,40.88,97817.52,28.59,296.2,1
8076143,89.15,0.23,5.56,-0.86,6.05,29.04,29.676,-0.16,0.9,9.76,,,,0,,,,,,,316,,,,2017-08-05T23:16:53Z,,,,0,,,,35.487229,-85.95816,,,,,,0,,,,0,1290349,0,61,,40.88,97807.83,28.59,297.03,1
8076176,89.67,-0.19,5.66,-1.04,6.06,29.07,29.713,-0.1,0.92,9.75,,,,0,,,,,,,346,,,,2017-08-05T23:16:53Z,,,,0,,,,35.487229,-85.95816,,,,,,0,,,,0,1290349,0,61,,40.88,97794.6,28.6,298.17,1
8076200,90.05,-0.6,5.76,-1.24,6,29.09,29.728,-0.04,0.94,9.75,,,,0,,,,,,,371,,,,2017-08-05T23:16:53Z,,,,0,,,,35.487229,-85.95816,,,,,,0,,,,0,1290349,0,61,,40.88,97783.77,28.6,299.09,1
8076226,90.28,-0.98,5.86,-1.34,5.91,29.12,29.744,0.02,0.95,9.75,,,,0,,,,,,,395,,,,2017-08-05T23:16:53Z,,,,0,,,,35.487229,-85.95816,,,,,,0,,,,0,1290349,0,61,,40.88,97774.9,28.6,299.85,1
8076254,90.31,-1.42,6,-1.5,5.85,29.13,29.749,0.09,0.97,9.75,,,,0,,,,,,,426,,,,2017-08-05T23:16:53Z,,,,0,,,,35.487229,-85.95816,,,,,,0,,,,0,1290349,0,61,,40.88,97759.99,28.55,301.13,1
8076283,90.17,-1.83,6.15,-1.75,5.73,29.15,29.759,0.15,1,9.75,,,,0,,,,,,,452,,,,2017-08-05T23:16:53Z,,,,0,,,,35.487229,-85.95816,,,,,,0,,,,0,1290349,0,61,,40.88,97747.78,28.55,302.18,1
8076311,89.76,-2.25,6.34,-1.9,5.63,29.17,29.769,0.22,1.02,9.74,,,,0,,,,,,,483,,,,2017-08-05T23:16:53Z,,,,0,,,,35.487229,-85.95816,,,,,,0,,,,0,1290349,0,61,,40.87,97729.14,28.57,303.78,1
8076340,89.03,-2.66,6.57,-2.11,5.5,29.18,29.769,0.29,1.05,9.74,,,,0,,,,,,,509,,,,2017-08-05T23:16:53Z,,,,0,,,,35.487229,-85.95816,,,,,,0,,,,0,1290349,0,61,,40.87,97713.87,28.57,305.09,1
8076364,88.02,-3.04,6.84,-2.41,5.33,29.2,29.780,0.35,1.09,9.73,,,,0,,,,,,,536,,,,2017-08-05T23:16:53Z,,,,0,,,,35.487229,-85.95816,,,,,,0,,,,0,1290349,0,61,,40.87,97701.36,28.57,306.16,1
8076396,86.59,-3.39,7.18,-2.61,5.13,29.21,29.772,0.41,1.14,9.72,,,,0,,,,,,,567,,,,2017-08-05T23:16:53Z,,,,0,,,,35.487229,-85.95816,,,,,,0,,,,0,1290349,0,61,,40.88,97680.91,28.56,307.91,1
8076421,84.86,-3.69,7.55,-2.87,4.91,29.22,29.768,0.47,1.18,9.71,,,,0,,,,,,,591,,,,2017-08-05T23:16:53Z,,,,0,,,,35.487229,-85.95816,,,,,,0,,,,0,1290349,0,61,,40.88,97664.16,28.56,309.35,1
8076450,82.56,-3.95,8.02,-3.2,4.61,29.24,29.774,0.52,1.25,9.7,,,,0,,,,,,,620,,,,2017-08-05T23:16:53Z,,,,0,,,,35.487229,-85.95816,,,,,,0,,,,0,1290349,0,61,,40.88,97650.45,28.56,310.53,1
8076475,80.16,-4.14,8.5,-3.42,4.28,29.25,29.759,0.56,1.31,9.69,,,,0,,,,,,,644,,,,2017-08-05T23:16:53Z,,,,0,,,,35.487229,-85.95816,,,,,,0,,,,0,1290349,0,61,,40.87,97623.94,28.56,312.8,1
8076504,76.97,-4.29,9.13,-3.6,3.9,29.27,29.747,0.6,1.39,9.67,,,,0,,,,,,,676,,,,2017-08-05T23:16:53Z,,,,0,,,,35.487229,-85.95816,,,,,,0,,,,0,1290349,0,61,,40.87,97602.23,28.56,314.66,1
8076531,73.89,-4.4,9.77,-3.8,3.53,29.29,29.746,0.63,1.48,9.66,,,,0,,,,,,,700,,,,2017-08-05T23:16:53Z,,,,0,,,,35.487229,-85.95816,,,,,,0,,,,0,1290349,0,61,,40.87,97566.03,28.53,317.77,1
8076555,71.13,-4.5,10.4,-3.99,3.18,29.3,29.741,0.66,1.57,9.64,,,,0,,,,,,,726,,,,2017-08-05T23:16:53Z,,,,0,,,,35.487229,-85.95816,,,,,,0,,,,0,1290349,0,61,,40.87,97536.38,28.53,320.32,1
8076588,68.84,-4.67,11.02,-4.17,2.83,29.32,29.750,0.69,1.66,9.62,,,,0,,,,,,,758,,,,2017-08-05T23:16:53Z,,,,0,,,,35.487229,-85.95816,,,,,,0,,,,0,1290349,0,61,,40.87,97512.1,28.53,322.4,1
8076613,67.37,-4.92,11.55,-4.42,2.44,29.34,29.771,0.73,1.74,9.61,,,,0,,,,,,,786,,,,2017-08-05T23:16:53Z,,,,0,,,,35.487229,-85.95816,,,,,,0,,,,0,1290349,0,61,,40.88,97475.89,28.49,325.52,1
8076646,66.85,-5.31,11.97,-4.78,2.08,29.36,29.819,0.79,1.82,9.59,,,,0,,,,,,,817,,,,2017-08-05T23:16:53Z,,,,0,,,,35.487229,-85.95816,,,,,,0,,,,0,1290349,0,61,,40.88,97446.23,28.49,328.06,1
8076672,67.15,-5.82,12.26,-5.12,1.78,29.38,29.876,0.86,1.88,9.57,,,,0,,,,,,,841,,,,2017-08-05T23:16:53Z,,,,0,,,,35.487229,-85.95816,,,,,,0,,,,0,1290349,0,61,,40.87,97405.48,28.5,331.57,1
8076700,68.37,-6.49,12.4,-5.57,1.45,29.4,29.958,0.94,1.92,9.55,,,,0,,,,,,,870,,,,2017-08-05T23:16:53Z,,,,0,,,,35.487229,-85.95816,,,,,,0,,,,0,1290353,0,61,,40.87,97372.1,28.5,334.44,1
8076725,69.89,-7.17,12.44,-6.01,1.18,29.42,30.051,1.04,1.95,9.53,,,,0,,,,,,,895,,,,2017-08-05T23:16:53Z,,,,0,,,,35.487229,-85.95816,,,,,,0,,,,0,1290377,0,61,,40.87,97344.76,28.5,336.79,1
8076749,71.82,-7.94,12.37,-6.42,0.96,29.43,30.137,1.14,1.97,9.52,,,,0,,,,,,,919,,,,2017-08-05T23:16:54Z,,,,0,,,,35.487229,-85.95816,,,,,,0,,,,0,1290401,0,61,,40.88,97315.12,28.45,339.34,1
8076778,73.62,-8.68,12.28,-6.83,0.77,29.45,30.241,1.25,1.97,9.5,,,,0,,,,,,,948,,,,2017-08-05T23:16:54Z,,,,0,,,,35.487229,-85.95816,,,,,,0,,,,0,1290429,0,61,,40.88,97290.85,28.45,341.43,1
8076803,75.02,-9.35,12.22,-7.24,0.62,29.46,30.343,1.35,1.98,9.49,,,,0,,,,,,,975,,,,2017-08-05T23:16:54Z,,,,0,,,,35.487229,-85.95816,,,,,,0,,,,0,1290453,0,61,,40.88,97270.98,28.45,343.14,1
8076834,75.78,-9.87,12.24,-7.65,0.42,29.48,30.459,1.44,1.99,9.47,,,,0,,,,,,,5,,,,2017-08-05T23:16:54Z,,,,0,,,,35.487229,-85.95816,,,,,,0,,,,0,1290481,0,61,,40.87,97243.27,28.39,345.52,1
8076858,75.64,-10.22,12.43,-8.03,0.17,29.5,30.574,1.51,2.02,9.46,,,,0,,,,,,,29,,,,2017-08-05T23:16:54Z,,,,0,,,,35.487229,-85.95816,,,,,,0,,,,0,1290505,0,61,,40.87,97220.59,28.39,347.47,1
8076887,74.64,-10.38,12.77,-8.33,-0.16,29.51,30.664,1.57,2.06,9.44,,,,0,,,,,,,58,,,,2017-08-05T23:16:54Z,,,,0,,,,35.487229,-85.95816,,,,,,0,,,,0,1290505,0,61,,40.87,97186.62,28.37,350.4,1
8076912,72.87,-10.35,13.25,-8.57,-0.55,29.53,30.753,1.6,2.12,9.42,,,,0,,,,,,,86,,,,2017-08-05T23:16:54Z,,,,0,,,,35.487229,-85.95816,,,,,,0,,,,0,1290505,0,61,,40.87,97158.8,28.37,352.79,1
8076939,70.19,-10.11,13.91,-8.73,-1.05,29.55,30.830,1.6,2.19,9.41,,,,0,,,,,,,111,,,,2017-08-05T23:16:54Z,,,,0,,,,35.487229,-85.95816,,,,,,0,,,,0,1290505,0,61,,40.87,97136.01,28.37,354.76,1
8076969,67.11,-9.73,14.63,-8.85,-1.51,29.57,30.903,1.58,2.28,9.39,,,,0,,,,,,,139,,,,2017-08-05T23:16:54Z,,,,0,,,,35.487229,-85.95816,,,,,,0,,,,0,1290505,0,61,,40.87,97093.89,28.3,358.39,1
8076993,64.42,-9.38,15.25,-8.97,-1.85,29.58,30.965,1.56,2.36,9.37,,,,0,,,,,,,166,,,,2017-08-05T23:16:54Z,,,,0,,,,35.487229,-85.95816,,,,,,0,,,,0,1290505,0,61,,40.87,97059.4,28.3,361.36,1
8077024,62.46,-9.14,15.72,-9.05,-2.13,29.6,31.026,1.54,2.43,9.36,,,,0,,,,,,,194,,,,2017-08-05T23:16:54Z,,,,0,,,,35.487229,-85.95816,,,,,,0,,,,0,1290505,0,61,,40.87,97010.14,28.19,365.61,1
8077047,61.5,-9.12,15.97,-9.12,-2.49,29.61,31.083,1.55,2.49,9.34,,,,0,,,,,,,218,,,,2017-08-05T23:16:54Z,,,,0,,,,35.487229,-85.95816,,,,,,0,,,,0,1290505,0,61,,40.87,96969.8,28.19,369.09,1
8077076,61.82,-9.38,15.96,-9.42,-2.74,29.62,31.202,1.58,2.51,9.33,,,,0,,,,,,,247,,,,2017-08-05T23:16:54Z,,,,0,,,,35.487229,-85.95816,,,,,,0,,,,0,1290505,0,61,,40.87,96936.76,28.19,371.94,1
8077101,63.01,-9.84,15.78,-9.89,-2.88,29.63,31.369,1.62,2.52,9.32,,,,0,,,,,,,274,,,,2017-08-05T23:16:54Z,,,,0,,,,35.487229,-85.95816,,,,,,0,,,,0,1290505,0,61,,40.87,96898.16,28.08,375.27,1
8077128,64.62,-10.39,15.49,-10.22,-2.95,29.64,31.491,1.68,2.51,9.32,,,,0,,,,,,,298,,,,2017-08-05T23:16:54Z,,,,0,,,,35.487229,-85.95816,,,,,,0,,,,0,1290505,0,61,,40.87,96866.55,28.08,378,1
8077156,66.08,-10.96,15.22,-10.3,-3.04,29.65,31.535,1.75,2.49,9.31,,,,0,,,,,,,328,,,,2017-08-05T23:16:54Z,,,,0,,,,35.487229,-85.95816,,,,,,0,,,,0,1290505,0,61,,40.87,96840.67,28.08,380.24,1
8077181,66.81,-11.35,15.1,-10.58,-3.16,29.65,31.639,1.81,2.48,9.3,,,,0,,,,,,,352,,,,2017-08-05T23:16:54Z,,,,0,,,,35.487229,-85.95816,,,,,,0,,,,0,1290505,0,61,,40.87,96812.41,27.96,382.68,1
8077209,66.34,-11.47,15.27,-10.89,-3.32,29.66,31.770,1.84,2.5,9.29,,,,0,,,,,,,380,,,,2017-08-05T23:16:54Z,,,,0,,,,35.487229,-85.95816,,,,,,0,,,,0,1290505,0,61,,40.87,96789.26,27.96,384.67,1
8077234,65.03,-11.39,15.63,-11.01,-3.56,29.68,31.856,1.85,2.54,9.28,,,,0,,,,,,,404,,,,2017-08-05T23:16:54Z,,,,0,,,,35.487229,-85.95816,,,,,,0,,,,0,1290505,0,61,,40.87,96751.13,27.87,387.97,1
8077262,62.13,-10.96,16.37,-10.84,-3.99,29.69,31.858,1.83,2.6,9.26,,,,0,,,,,,,436,,,,2017-08-05T23:16:54Z,,,,0,,,,35.487229,-85.95816,,,,,,0,,,,0,1290505,0,61,,40.87,96719.91,27.87,390.67,2
8077292,58.99,-10.42,17.16,-10.67,-4.2,29.71,31.846,1.78,2.69,9.25,,,,0,,,,,,,465,,,,2017-08-05T23:16:54Z,,,,0,,,,35.487229,-85.95816,,,,,,0,,,,0,1290505,0,61,,40.87,96694.34,27.87,392.88,2
8077327,55.87,-9.85,17.94,-10.52,-4.33,29.73,31.832,1.72,2.79,9.23,,,,0,,,,,,,497,,,,2017-08-05T23:16:54Z,,,,0,,,,35.487229,-85.95816,,,,,,0,,,,0,1290505,0,61,,40.87,96643.12,27.78,397.31,2
8077351,53.56,-9.43,18.5,-10.26,-4.42,29.74,31.769,1.67,2.87,9.21,,,,0,,,,,,,524,,,,2017-08-05T23:16:54Z,,,,0,,,,35.487229,-85.95816,,,,,,0,,,,0,1290505,0,61,,40.87,96601.19,27.78,400.94,2
8077378,52.18,-9.22,18.82,-10.04,-4.63,29.76,31.747,1.64,2.94,9.2,,,,0,,,,,,,548,,,,2017-08-05T23:16:54Z,,,,0,,,,35.487229,-85.95816,,,,,,0,,,,0,1290505,0,61,,40.87,96542.48,27.64,406.03,2
8077407,51.82,-9.27,18.9,-10,-4.68,29.77,31.751,1.63,2.97,9.19,,,,0,,,,,,,578,,,,2017-08-05T23:16:54Z,,,,0,,,,35.487229,-85.95816,,,,,,0,,,,0,1290505,0,61,,40.87,96494.41,27.64,410.19,2
8077432,52.23,-9.5,18.8,-9.99,-4.58,29.78,31.743,1.64,2.99,9.18,,,,0,,,,,,,602,,,,2017-08-05T23:16:54Z,,,,0,,,,35.487229,-85.95816,,,,,,0,,,,0,1290505,0,61,,40.87,96455.03,27.64,413.6,2
8077460,53.32,-9.89,18.51,-9.87,-4.37,29.78,31.676,1.67,2.98,9.18,,,,0,,,,,,,632,,,,2017-08-05T23:16:54Z,,,,0,,,,35.487229,-85.95816,,,,,,0,,,,0,1290505,0,61,,40.87,96416.16,27.53,416.97,2
8077488,54.72,-10.32,18.1,-9.59,-4.17,29.78,31.563,1.71,2.96,9.18,,,,0,,,,,,,658,,,,2017-08-05T23:16:54Z,,,,0,,,,35.487229,-85.95816,,,,,,0,,,,0,1290505,0,61,,40.87,96384.32,27.53,419.73,2
8077516,56.05,-10.65,17.68,-9.27,-3.83,29.77,31.414,1.75,2.93,9.18,,,,0,,,,,,,688,,,,2017-08-05T23:16:54Z,,,,0,,,,35.487229,-85.95816,,,,,,0,,,,0,1290505,0,61,,40.87,96354.85,27.44,422.28,2
8077544,57.17,-10.83,17.28,-8.9,-3.33,29.77,31.250,1.78,2.89,9.19,,,,0,,,,,,,716,,,,2017-08-05T23:16:54Z,,,,0,,,,35.487229,-85.95816,,,,,,0,,,,0,1290505,0,61,,40.87,96330.72,27.44,424.37,2
8077570,57.96,-10.85,16.93,-8.44,-2.86,29.76,31.066,1.79,2.85,9.2,,,,0,,,,,,,740,,,,2017-08-05T23:16:54Z,,,,0,,,,35.487229,-85.95816,,,,,,0,,,,0,1290505,0,61,,40.87,96310.95,27.44,426.09,2
8077599,58.46,-10.7,16.61,-7.81,-2.48,29.74,30.848,1.78,2.81,9.21,,,,0,,,,,,,770,,,,2017-08-05T23:16:54Z,,,,0,,,,35.487229,-85.95816,,,,,,0,,,,0,1290505,0,61,,40.87,96286.55,27.37,428.2,2
8077624,58.75,-10.46,16.35,-7.19,-1.99,29.73,30.652,1.77,2.78,9.23,,,,0,,,,,,,794,,,,2017-08-05T23:16:54Z,,,,0,,,,35.487229,-85.95816,,,,,,0,,,,0,1290505,0,61,,40.87,96266.58,27.37,429.93,2
8077652,58.95,-10.05,16.07,-6.49,-1.59,29.71,30.452,1.73,2.75,9.24,,,,0,,,,,,,826,,,,2017-08-05T23:16:54Z,,,,0,,,,35.487229,-85.95816,,,,,,0,,,,0,1290505,0,61,,40.86,96240.56,27.27,432.19,2
8077679,59.17,-9.61,15.79,-5.77,-1.52,29.45,30.048,1.69,2.71,9.26,,,,0,,,,,,,849,,,,2017-08-05T23:16:54Z,,,,0,,,,35.487229,-85.95816,,,,,,0,,,,0,1290505,0,61,,40.86,96219.26,27.27,434.04,2
8077703,59.52,-9.17,15.49,-5.03,-1.64,26.89,27.406,1.64,2.67,9.28,,,,0,,,,,,,876,,,,2017-08-05T23:16:54Z,,,,0,,,,35.487229,-85.95816,,,,,,0,,,,0,1290521,0,61,,40.86,96201.81,27.27,435.55,2
8077729,60.04,-8.74,15.19,-4.3,-1.72,23.37,23.824,1.58,2.63,9.3,,,,0,,,,,,,899,,,,2017-08-05T23:16:55Z,,,,0,,,,35.487229,-85.95816,,,,,,0,,,,0,1290545,0,61,,40.87,96175.73,27.2,437.82,2
8077749,60.69,-8.36,14.89,-3.56,-1.79,20.14,20.530,1.53,2.59,9.32,,,,0,,,,,,,921,,,,2017-08-05T23:16:55Z,,,,0,,,,35.487229,-85.95816,,,,,,0,,,,0,1290565,0,61,,40.87,96154.38,27.2,439.67,2
8077782,61.71,-7.99,14.55,-2.86,-1.84,16.92,17.258,1.48,2.54,9.34,,,,0,,,,,,,952,,,,2017-08-05T23:16:55Z,,,,0,,,,35.487229,-85.95816,,,,,,0,,,,0,1290597,0,61,,40.87,96136.88,27.2,441.19,2
8077806,63,-7.66,14.21,-2.18,-1.92,13.47,13.780,1.42,2.49,9.36,,,,0,,,,,,,977,,,,2017-08-05T23:16:55Z,,,,0,,,,35.487229,-85.95816,,,,,,0,,,,0,1290621,0,61,,40.87,96108.69,27.13,443.64,2
8077836,64.69,-7.38,13.86,-1.59,-1.98,9.91,10.230,1.37,2.44,9.39,,,,0,,,,,,,4,,,,2017-08-05T23:16:55Z,,,,0,,,,35.487229,-85.95816,,,,,,0,,,,0,1290649,0,61,,40.87,96085.59,27.13,445.65,2
8077860,66.59,-7.16,13.51,-1.11,-2.07,6.28,6.705,1.33,2.39,9.4,,,,0,,,,,,,31,,,,2017-08-05T23:16:55Z,,,,0,,,,35.487229,-85.95816,,,,,,0,,,,0,1290661,0,61,,40.87,96066.68,27.13,447.29,2
8077894,69.08,-7.04,13.11,-0.74,-2.26,2.73,3.621,1.3,2.33,9.42,,,,0,,,,,,,64,,,,2017-08-05T23:16:55Z,,,,0,,,,35.487229,-85.95816,,,,,,0,,,,0,1290661,0,61,,40.86,96031.46,27.09,450.36,2
8077920,71.66,-7.03,12.72,-0.39,-2.64,-0.5,2.715,1.28,2.27,9.44,,,,0,,,,,,,88,,,,2017-08-05T23:16:55Z,,,,0,,,,35.487229,-85.95816,,,,,,0,,,,0,1290661,0,61,,40.86,96002.61,27.09,452.87,2
8077944,74.4,-7.14,12.37,-0.07,-2.92,-3.1,4.259,1.27,2.21,9.46,,,,0,,,,,,,114,,,,2017-08-05T23:16:55Z,,,,0,,,,35.487229,-85.95816,,,,,,0,,,,0,1290661,0,61,,40.87,95957.43,27.01,456.8,2
8077975,77.49,-7.37,12.02,0.25,-3.01,-5.21,6.022,1.28,2.16,9.47,,,,0,,,,,,,143,,,,2017-08-05T23:16:55Z,,,,0,,,,35.487229,-85.95816,,,,,,0,,,,0,1290661,0,61,,40.87,95920.43,27.01,460.02,2
8077999,80.6,-7.67,11.69,0.45,-2.94,-6.95,7.560,1.3,2.1,9.48,,,,0,,,,,,,168,,,,2017-08-05T23:16:55Z,,,,0,,,,35.487229,-85.95816,,,,,,0,,,,0,1290661,0,61,,40.87,95890.12,27.01,462.66,2
8078031,83.95,-8.04,11.31,0.51,-2.87,-8.34,8.835,1.33,2.04,9.49,,,,0,,,,,,,199,,,,2017-08-05T23:16:55Z,,,,0,,,,35.487229,-85.95816,,,,,,0,,,,0,1290661,0,61,,40.87,95845.89,26.95,466.51,2
8078055,87.25,-8.44,10.88,0.46,-3.02,-9.53,10.008,1.38,1.97,9.49,,,,0,,,,,,,225,,,,2017-08-05T23:16:55Z,,,,0,,,,35.487229,-85.95816,,,,,,0,,,,0,1290661,0,61,,40.87,95809.66,26.95,469.67,2
8078085,90.71,-8.87,10.37,0.39,-3.12,-10.47,10.932,1.43,1.89,9.5,,,,0,,,,,,,254,,,,2017-08-05T23:16:55Z,,,,0,,,,35.487229,-85.95816,,,,,,0,,,,0,1290661,0,61,,40.87,95756.22,26.87,474.32,2
8078110,94.04,-9.29,9.82,0.31,-3.14,-11.24,11.674,1.48,1.81,9.51,,,,0,,,,,,,281,,,,2017-08-05T23:16:55Z,,,,0,,,,35.487229,-85.95816,,,,,,0,,,,0,1290661,0,61,,40.87,95712.45,26.87,478.14,2
8078137,97.35,-9.7,9.22,0.15,-3.07,-11.92,12.310,1.53,1.72,9.52,,,,0,,,,,,,305,,,,2017-08-05T23:16:55Z,,,,0,,,,35.487229,-85.95816,,,,,,0,,,,0,1290661,0,61,,40.87,95676.6,26.87,481.27,2
8078165,100.83,-10.09,8.52,-0.01,-2.98,-12.43,12.782,1.59,1.61,9.52,,,,0,,,,,,,335,,,,2017-08-05T23:16:55Z,,,,0,,,,35.487229,-85.95816,,,,,,0,,,,0,1290661,0,61,,40.87,95626.38,26.77,485.65,2
8078191,104.22,-10.42,7.8,-0.17,-2.92,-12.87,13.198,1.64,1.51,9.53,,,,0,,,,,,,362,,,,2017-08-05T23:16:55Z,,,,0,,,,35.487229,-85.95816,,,,,,0,,,,0,1290661,0,61,,40.87,95585.25,26.77,489.24,2
8078224,108.05,-10.73,6.92,-0.25,-2.83,-13.23,13.532,1.68,1.4,9.54,,,,0,,,,,,,393,,,,2017-08-05T23:16:55Z,,,,0,,,,35.487229,-85.95816,,,,,,0,,,,0,1290661,0,61,,40.87,95532.48,26.76,493.85,2
8078248,111.7,-10.95,6.05,-0.39,-2.63,-13.55,13.808,1.72,1.27,9.55,,,,0,,,,,,,417,,,,2017-08-05T23:16:55Z,,,,0,,,,35.487229,-85.95816,,,,,,0,,,,0,1290661,0,61,,40.87,95489.25,26.76,497.62,2
8078277,115.52,-11.09,5.12,-0.51,-2.48,-13.74,13.971,1.75,1.14,9.56,,,,0,,,,,,,446,,,,2017-08-05T23:16:55Z,,,,0,,,,35.487229,-85.95816,,,,,,0,,,,0,1290661,0,61,,40.87,95453.84,26.76,500.71,2
8078302,119.28,-11.14,4.2,-0.64,-2.28,-13.99,14.189,1.78,1.01,9.57,,,,0,,,,,,,473,,,,2017-08-05T23:16:55Z,,,,0,,,,35.487229,-85.95816,,,,,,0,,,,0,1290661,0,61,,40.87,95407.13,26.75,504.8,2
8078331,122.97,-11.1,3.31,-0.73,-2.07,-14.15,14.319,1.79,0.87,9.58,,,,0,,,,,,,499,,,,2017-08-05T23:16:55Z,,,,0,,,,35.487229,-85.95816,,,,,,0,,,,0,1290661,0,61,,40.87,95368.88,26.75,508.14,2
8078360,126.91,-10.96,2.39,-0.76,-1.86,-14.32,14.460,1.79,0.73,9.59,,,,0,,,,,,,530,,,,2017-08-05T23:16:55Z,,,,0,,,,35.487229,-85.95816,,,,,,0,,,,0,1290661,0,61,,40.87,95319.39,26.65,512.47,2
8078386,130.82,-10.73,1.52,-0.8,-1.64,-14.46,14.575,1.77,0.59,9.6,,,,0,,,,,,,555,,,,2017-08-05T23:16:55Z,,,,0,,,,35.487229,-85.95816,,,,,,0,,,,0,1290661,0,61,,40.87,95278.87,26.65,516.02,2
8078415,134.96,-10.41,0.66,-0.76,-1.44,-14.56,14.651,1.74,0.45,9.61,,,,0,,,,,,,585,,,,2017-08-05T23:16:55Z,,,,0,,,,35.487229,-85.95816,,,,,,0,,,,0,1290661,0,61,,40.87,95245.67,26.65,518.92,2
8078441,138.99,-10.03,-0.13,-0.69,-1.29,-14.62,14.693,1.71,0.32,9.62,,,,0,,,,,,,612,,,,2017-08-05T23:16:55Z,,,,0,,,,35.487229,-85.95816,,,,,,0,,,,0,1290661,0,61,,40.87,95198.38,26.61,523.06,2
8078473,143.25,-9.56,-0.9,-0.63,-1.15,-14.65,14.709,1.66,0.19,9.63,,,,0,,,,,,,641,,,,2017-08-05T23:16:55Z,,,,0,,,,35.487229,-85.95816,,,,,,0,,,,0,1290661,0,61,,40.87,95159.66,26.61,526.45,2
8078497,147.68,-9.02,-1.62,-0.59,-0.99,-14.65,14.695,1.6,0.07,9.65,,,,0,,,,,,,665,,,,2017-08-05T23:16:55Z,,,,0,,,,35.487229,-85.95816,,,,,,0,,,,0,1290661,0,61,,40.87,95127.95,26.61,529.23,2
8078521,151.69,-8.48,-2.23,-0.5,-0.91,-14.65,14.687,1.53,-0.05,9.66,,,,0,,,,,,,690,,,,2017-08-05T23:16:55Z,,,,0,,,,35.487229,-85.95816,,,,,,0,,,,0,1290661,0,61,,40.87,95082.23,26.52,533.24,2
8078550,155.96,-7.88,-2.82,-0.4,-0.79,-14.63,14.657,1.46,-0.16,9.67,,,,0,,,,,,,721,,,,2017-08-05T23:16:55Z,,,,0,,,,35.487229,-85.95816,,,,,,0,,,,0,1290661,0,61,,40.87,95044.8,26.52,536.52,2
8078577,160.4,-7.22,-3.37,-0.3,-0.7,-14.61,14.630,1.37,-0.26,9.68,,,,0,,,,,,,745,,,,2017-08-05T23:16:55Z,,,,0,,,,35.487229,-85.95816,,,,,,0,,,,0,1290661,0,61,,40.87,94994.79,26.45,540.91,2
8078606,164.71,-6.56,-3.86,-0.23,-0.63,-14.58,14.595,1.28,-0.36,9.69,,,,0,,,,,,,775,,,,2017-08-05T23:16:55Z,,,,0,,,,35.487229,-85.95816,,,,,,0,,,,0,1290661,0,61,,40.87,94953.84,26.45,544.5,2
8078631,168.87,-5.89,-4.29,-0.09,-0.66,-14.57,14.585,1.18,-0.45,9.7,,,,0,,,,,,,799,,,,2017-08-05T23:16:55Z,,,,0,,,,35.487229,-85.95816,,,,,,0,,,,0,1290661,0,61,,40.87,94920.3,26.45,547.44,2
8078659,173.2,-5.19,-4.69,-0.02,-0.65,-14.54,14.555,1.08,-0.53,9.7,,,,0,,,,,,,830,,,,2017-08-05T23:16:55Z,,,,0,,,,35.487229,-85.95816,,,,,,0,,,,0,1290661,0,61,,40.87,94871.15,26.38,551.76,2
8078685,177.39,-4.48,-5.05,0.02,-0.63,-14.51,14.524,0.97,-0.61,9.71,,,,0,,,,,,,854,,,,2017-08-05T23:16:55Z,,,,0,,,,35.487229,-85.95816,,,,,,0,,,,0,1290661,0,61,,40.87,94830.9,26.38,555.29,2
8078714,-178.29,-3.73,-5.39,0.06,-0.63,-14.49,14.504,0.86,-0.68,9.72,,,,0,,,,,,,884,,,,2017-08-05T23:16:55Z,,,,0,,,,35.487229,-85.95816,,,,,,0,,,,0,1290681,0,61,,40.87,94776.94,26.29,560.04,2
8078743,-173.9,-2.94,-5.7,0.11,-0.61,-14.47,14.483,0.74,-0.75,9.72,,,,0,,,,,,,913,,,,2017-08-05T23:16:56Z,,,,0,,,,35.487229,-85.95816,,,,,,0,,,,0,1290705,0,61,,40.87,94732.74,26.29,563.92,2
8078771,-169.76,-2.16,-5.95,0.17,-0.58,-14.45,14.463,0.62,-0.81,9.72,,,,0,,,,,,,940,,,,2017-08-05T23:16:56Z,,,,0,,,,35.487229,-85.95816,,,,,,0,,,,0,1290733,0,61,,40.87,94696.55,26.29,567.1,2
8078800,-165.51,-1.33,-6.18,0.26,-0.54,-14.45,14.462,0.5,-0.86,9.73,,,,0,,,,,,,971,,,,2017-08-05T23:16:56Z,,,,0,,,,35.487229,-85.95816,,,,,,0,,,,0,1290761,0,61,,40.87,94648.75,26.22,571.31,2
8078829,-161.2,-0.46,-6.37,0.33,-0.45,-14.41,14.421,0.37,-0.9,9.73,,,,0,,,,,,,997,,,,2017-08-05T23:16:56Z,,,,0,,,,35.487229,-85.95816,,,,,,0,,,,0,1290789,0,61,,40.87,94609.61,26.22,574.75,2
8078857,-156.86,0.47,-6.51,0.42,-0.43,-14.38,14.393,0.23,-0.94,9.73,,,,0,,,,,,,4,,,,2017-08-05T23:16:56Z,,,,0,,,,35.487229,-85.95816,,,,,,0,,,,0,1290817,0,61,,40.87,94560.09,26.19,579.11,2
8078881,-152.97,1.31,-6.58,0.51,-0.36,-14.36,14.374,0.09,-0.97,9.73,,,,0,,,,,,,28,,,,2017-08-05T23:16:56Z,,,,0,,,,35.487229,-85.95816,,,,,,0,,,,0,1290837,0,61,,40.87,94519.53,26.19,582.68,2
8078910,-148.91,2.23,-6.59,0.65,-0.31,-14.35,14.368,-0.05,-0.99,9.73,,,,0,,,,,,,61,,,,2017-08-05T23:16:56Z,,,,0,,,,35.487229,-85.95816,,,,,,0,,,,0,1290843,0,61,,40.87,94486.31,26.19,585.61,2
8078940,-144.71,3.19,-6.53,0.8,-0.27,-14.31,14.335,-0.2,-1,9.72,,,,0,,,,,,,90,,,,2017-08-05T23:16:56Z,,,,0,,,,35.487229,-85.95816,,,,,,0,,,,0,1290843,0,61,,40.87,94442.04,26.11,589.51,2
8078967,-140.41,4.18,-6.39,0.94,-0.22,-14.29,14.323,-0.35,-1,9.72,,,,0,,,,,,,114,,,,2017-08-05T23:16:56Z,,,,0,,,,35.487229,-85.95816,,,,,,0,,,,0,1290843,0,61,,40.87,94405.77,26.11,592.7,2
8078996,-136.26,5.13,-6.17,1.14,-0.18,-14.29,14.337,-0.51,-0.99,9.71,,,,0,,,,,,,144,,,,2017-08-05T23:16:56Z,,,,0,,,,35.487229,-85.95816,,,,,,0,,,,0,1290843,0,61,,40.87,94376.08,26.11,595.32,2
8079020,-132.25,6.04,-5.88,1.32,-0.14,-14.26,14.322,-0.66,-0.96,9.7,,,,0,,,,,,,168,,,,2017-08-05T23:16:56Z,,,,0,,,,35.487229,-85.95816,,,,,,0,,,,0,1290843,0,61,,40.86,94334.48,26,598.99,2
8079049,-128.05,6.97,-5.49,1.48,-0.16,-14.22,14.298,-0.81,-0.93,9.69,,,,0,,,,,,,199,,,,2017-08-05T23:16:56Z,,,,0,,,,35.487229,-85.95816,,,,,,0,,,,0,1290843,0,61,,40.86,94300.41,26,602,2
8079075,-123.93,7.84,-5.03,1.63,-0.17,-14.19,14.284,-0.96,-0.87,9.69,,,,0,,,,,,,223,,,,2017-08-05T23:16:56Z,,,,0,,,,35.487229,-85.95816,,,,,,0,,,,0,1290843,0,61,,40.87,94254.18,25.95,606.08,2
8079104,-119.62,8.7,-4.47,1.83,-0.24,-14.15,14.270,-1.11,-0.81,9.68,,,,0,,,,,,,253,,,,2017-08-05T23:16:56Z,,,,0,,,,35.487229,-85.95816,,,,,,0,,,,0,1290843,0,61,,40.87,94216.3,25.95,609.42,2
8079130,-115.46,9.49,-3.85,1.95,-0.32,-14.09,14.228,-1.24,-0.73,9.67,,,,0,,,,,,,277,,,,2017-08-05T23:16:56Z,,,,0,,,,35.487229,-85.95816,,,,,,0,,,,0,1290843,0,61,,40.87,94185.29,25.95,612.16,2
8079154,-111.35,10.2,-3.17,2.09,-0.43,-14.06,14.221,-1.37,-0.64,9.65,,,,0,,,,,,,303,,,,2017-08-05T23:16:56Z,,,,0,,,,35.487229,-85.95816,,,,,,0,,,,0,1290843,0,61,,40.86,94140.92,25.87,616.08,2
8079184,-107.02,10.89,-2.39,2.25,-0.55,-14.06,14.250,-1.49,-0.55,9.64,,,,0,,,,,,,332,,,,2017-08-05T23:16:56Z,,,,0,,,,35.487229,-85.95816,,,,,,0,,,,0,1290843,0,61,,40.86,94104.59,25.87,619.29,2
8079208,-102.84,11.48,-1.6,2.35,-0.64,-14.05,14.260,-1.61,-0.45,9.63,,,,0,,,,,,,357,,,,2017-08-05T23:16:56Z,,,,0,,,,35.487229,-85.95816,,,,,,0,,,,0,1290843,0,61,,40.86,94074.83,25.87,623.62,2
8079248,-97.96,12.07,-0.63,2.48,-0.79,-14.07,14.309,-1.71,-0.32,9.61,,,,0,,,,,,,396,,,,2017-08-05T23:16:56Z,,,,0,,,,35.487229,-85.95816,,,,,,0,,,,0,1290843,0,61,,40.86,94031.3,25.83,627.16,2
8079275,-93.36,12.55,0.31,2.57,-0.93,-14.04,14.304,-1.81,-0.19,9.6,,,,0,,,,,,,422,,,,2017-08-05T23:16:56Z,,,,0,,,,35.487229,-85.95816,,,,,,0,,,,0,1290843,0,61,,40.86,93995.65,25.83,630.06,2
8079303,-88.72,12.94,1.29,2.67,-1.07,-14.02,14.312,-1.9,-0.05,9.58,,,,0,,,,,,,452,,,,2017-08-05T23:16:56Z,,,,0,,,,35.487229,-85.95816,,,,,,0,,,,0,1290843,0,61,,40.86,93948.74,25.71,634.01,2
8079331,-84.34,13.24,2.22,2.69,-1.21,-13.97,14.278,-1.97,0.08,9.57,,,,0,,,,,,,478,,,,2017-08-05T23:16:56Z,,,,0,,,,35.487229,-85.95816,,,,,,0,,,,0,1290843,0,61,,40.86,93910.32,25.71,637.24,2
8079360,-79.86,13.47,3.19,2.74,-1.35,-13.95,14.280,-2.03,0.22,9.55,,,,0,,,,,,,511,,,,2017-08-05T23:16:56Z,,,,0,,,,35.487229,-85.95816,,,,,,0,,,,0,1290843,0,61,,40.86,93862.34,25.64,641.35,2
8079389,-75.31,13.63,4.16,2.75,-1.5,-13.91,14.258,-2.09,0.37,9.54,,,,0,,,,,,,540,,,,2017-08-05T23:16:56Z,,,,0,,,,35.487229,-85.95816,,,,,,0,,,,0,1290843,0,61,,40.86,93823.04,25.64,644.72,2
8079417,-70.72,13.71,5.15,2.78,-1.65,-13.87,14.242,-2.13,0.51,9.52,,,,0,,,,,,,564,,,,2017-08-05T23:16:56Z,,,,0,,,,35.487229,-85.95816,,,,,,0,,,,0,1290843,0,61,,40.86,93790.86,25.64,647.48,2
8079448,-66.1,13.72,6.13,2.76,-1.79,-13.84,14.226,-2.16,0.66,9.5,,,,0,,,,,,,597,,,,2017-08-05T23:16:56Z,,,,0,,,,35.487229,-85.95816,,,,,,0,,,,0,1290843,0,61,,40.86,93746.99,25.63,651.29,2
8079474,-61.71,13.67,7.07,2.71,-1.92,-13.81,14.204,-2.18,0.81,9.49,,,,0,,,,,,,621,,,,2017-08-05T23:16:56Z,,,,0,,,,35.487229,-85.95816,,,,,,0,,,,0,1290843,0,61,,40.86,93711.07,25.63,654.42,2
8079503,-57.23,13.55,8.02,2.7,-2.02,-13.78,14.187,-2.18,0.96,9.47,,,,0,,,,,,,652,,,,2017-08-05T23:16:56Z,,,,0,,,,35.487229,-85.95816,,,,,,0,,,,0,1290843,0,61,,40.86,93665.88,25.54,658.37,2
8079529,-52.98,13.38,8.91,2.74,-2.13,-13.74,14.172,-2.18,1.11,9.46,,,,0,,,,,,,676,,,,2017-08-05T23:16:56Z,,,,0,,,,35.487229,-85.95816,,,,,,0,,,,0,1290843,0,61,,40.86,93628.88,25.54,661.62,2
8079558,-48.6,13.13,9.82,2.73,-2.23,-13.68,14.127,-2.17,1.25,9.44,,,,0,,,,,,,706,,,,2017-08-05T23:16:56Z,,,,0,,,,35.487229,-85.95816,,,,,,0,,,,0,1290843,0,61,,40.86,93598.57,25.54,664.27,2
8079585,-44.38,12.84,10.68,2.72,-2.35,-13.63,14.096,-2.14,1.4,9.43,,,,0,,,,,,,733,,,,2017-08-05T23:16:56Z,,,,0,,,,35.487229,-85.95816,,,,,,0,,,,0,1290843,0,61,,40.85,93556.55,25.49,667.98,2
8079610,-40.3,12.5,11.5,2.69,-2.48,-13.61,14.093,-2.11,1.54,9.41,,,,0,,,,,,,760,,,,2017-08-05T23:16:56Z,,,,0,,,,35.487229,-85.95816,,,,,,0,,,,0,1290843,0,61,,40.85,93522.12,25.49,671.01,2
8079642,-35.78,12.06,12.38,2.63,-2.6,-13.56,14.055,-2.06,1.69,9.4,,,,0,,,,,,,792,,,,2017-08-05T23:16:56Z,,,,0,,,,35.487229,-85.95816,,,,,,0,,,,0,1290843,0,61,,40.85,93478.56,25.42,674.86,2
8079670,-31.52,11.58,13.19,2.55,-2.72,-13.52,14.025,-2.01,1.82,9.38,,,,0,,,,,,,818,,,,2017-08-05T23:16:56Z,,,,0,,,,35.487229,-85.95816,,,,,,0,,,,0,1290843,0,61,,40.85,93442.88,25.42,678.02,2
8079698,-27.16,11.03,13.99,2.51,-2.86,-13.49,14.016,-1.94,1.96,9.37,,,,0,,,,,,,848,,,,2017-08-05T23:16:56Z,,,,0,,,,35.487229,-85.95816,,,,,,0,,,,0,1290847,0,61,,40.85,93413.66,25.42,680.6,2
8079727,-22.75,10.41,14.77,2.47,-2.99,-13.44,13.988,-1.87,2.09,9.36,,,,0,,,,,,,874,,,,2017-08-05T23:16:56Z,,,,0,,,,35.487229,-85.95816,,,,,,0,,,,0,1290875,0,61,,40.85,93372.59,25.39,684.24,2
8079751,-18.52,9.76,15.47,2.37,-3.04,-13.42,13.963,-1.79,2.21,9.35,,,,0,,,,,,,901,,,,2017-08-05T23:16:57Z,,,,0,,,,35.487229,-85.95816,,,,,,0,,,,0,1290899,0,61,,40.85,93338.96,25.39,687.23,2
8079775,-14.72,9.12,16.07,2.3,-3.14,-13.39,13.944,-1.7,2.33,9.33,,,,0,,,,,,,922,,,,2017-08-05T23:16:57Z,,,,0,,,,35.487229,-85.95816,,,,,,0,,,,0,1290919,0,61,,40.85,93311.41,25.39,691.14,2
8079796,-10.96,8.45,16.62,2.23,-3.29,-13.36,13.939,-1.61,2.44,9.32,,,,0,,,,,,,943,,,,2017-08-05T23:16:57Z,,,,0,,,,35.487229,-85.95816,,,,,,0,,,,0,1290939,0,61,,40.85,93272.41,25.33,694.34,2
8079822,-7.47,7.79,17.1,2.17,-3.37,-13.32,13.910,-1.51,2.54,9.31,,,,0,,,,,,,4,,,,2017-08-05T23:16:57Z,,,,0,,,,35.487229,-85.95816,,,,,,0,,,,0,1290967,0,61,,40.85,93240.46,25.33,696.96,2
8079846,-3.9,7.08,17.55,2.04,-3.45,-13.3,13.891,-1.4,2.64,9.3,,,,0,,,,,,,28,,,,2017-08-05T23:16:57Z,,,,0,,,,35.487229,-85.95816,,,,,,0,,,,0,1290987,0,61,,40.85,93197.48,25.3,700.61,2
8079875,-0.05,6.28,17.98,1.9,-3.56,-13.26,13.860,-1.29,2.73,9.29,,,,0,,,,,,,57,,,,2017-08-05T23:16:57Z,,,,0,,,,35.487229,-85.95816,,,,,,0,,,,0,1290999,0,61,,40.85,93162.28,25.3,703.6,2
8079899,3.7,5.46,18.36,1.8,-3.66,-13.24,13.854,-1.17,2.81,9.29,,,,0,,,,,,,85,,,,2017-08-05T23:16:57Z,,,,0,,,,35.487229,-85.95816,,,,,,0,,,,0,1290999,0,61,,40.85,93133.45,25.3,706.04,2
8079933,7.91,4.51,18.72,1.69,-3.72,-13.2,13.818,-1.04,2.88,9.28,,,,0,,,,,,,116,,,,2017-08-05T23:16:57Z,,,,0,,,,35.487229,-85.95816,,,,,,0,,,,0,1290999,0,61,,40.85,93092.38,25.25,709.6,2
8079958,11.89,3.58,19,1.53,-3.74,-13.17,13.776,-0.9,2.95,9.27,,,,0,,,,,,,142,,,,2017-08-05T23:16:57Z,,,,0,,,,35.487229,-85.95816,,,,,,0,,,,0,1290999,0,61,,40.85,93058.75,25.25,712.52,2
8079984,15.76,2.64,19.2,1.35,-3.81,-13.14,13.748,-0.75,3,9.27,,,,0,,,,,,,166,,,,2017-08-05T23:16:57Z,,,,0,,,,35.487229,-85.95816,,,,,,0,,,,0,1290999,0,61,,40.85,93031.2,25.25,714.91,2
8080013,19.76,1.66,19.34,1.2,-3.86,-13.12,13.729,-0.6,3.05,9.26,,,,0,,,,,,,197,,,,2017-08-05T23:16:57Z,,,,0,,,,35.487229,-85.95816,,,,,,0,,,,0,1290999,0,61,,40.85,92993.09,25.24,718.26,2
8080039,23.59,0.7,19.4,1.04,-3.85,-13.08,13.674,-0.45,3.08,9.26,,,,0,,,,,,,225,,,,2017-08-05T23:16:57Z,,,,0,,,,35.487229,-85.95816,,,,,,0,,,,0,1290999,0,61,,40.85,92961.88,25.24,721,2
8080073,27.55,-0.29,19.4,0.85,-3.86,-13.05,13.635,-0.3,3.11,9.26,,,,0,,,,,,,255,,,,2017-08-05T23:16:57Z,,,,0,,,,35.487229,-85.95816,,,,,,0,,,,0,1290999,0,61,,40.85,92920.05,25.19,724.7,2
8080097,31.6,-1.3,19.32,0.72,-3.87,-13.04,13.621,-0.15,3.12,9.26,,,,0,,,,,,,281,,,,2017-08-05T23:16:57Z,,,,0,,,,35.487229,-85.95816,,,,,,0,,,,0,1290999,0,61,,40.85,92885.8,25.19,727.73,2
8080130,35.7,-2.31,19.17,0.54,-3.87,-13.01,13.584,0.01,3.12,9.26,,,,0,,,,,,,312,,,,2017-08-05T23:16:57Z,,,,0,,,,35.487229,-85.95816,,,,,,0,,,,0,1290999,0,61,,40.85,92843.89,25.12,731.45,2
8080154,39.64,-3.27,18.95,0.39,-3.81,-12.99,13.543,0.17,3.11,9.26,,,,0,,,,,,,337,,,,2017-08-05T23:16:57Z,,,,0,,,,35.487229,-85.95816,,,,,,0,,,,0,1290999,0,61,,40.85,92809.57,25.12,734.49,2
8080179,43.41,-4.17,18.68,0.24,-3.81,-12.96,13.511,0.33,3.09,9.26,,,,0,,,,,,,361,,,,2017-08-05T23:16:57Z,,,,0,,,,35.487229,-85.95816,,,,,,0,,,,0,1290999,0,61,,40.85,92781.45,25.12,736.99,2
8080208,47.33,-5.09,18.35,0.1,-3.8,-12.94,13.487,0.48,3.06,9.27,,,,0,,,,,,,392,,,,2017-08-05T23:16:57Z,,,,0,,,,35.487229,-85.95816,,,,,,0,,,,0,1290999,0,61,,40.85,92742.74,25.08,740.44,2
8080233,51.15,-5.95,17.96,-0.03,-3.76,-12.92,13.456,0.63,3.01,9.27,,,,0,,,,,,,416,,,,2017-08-05T23:16:57Z,,,,0,,,,35.487229,-85.95816,,,,,,0,,,,0,1290999,0,61,,40.85,92711.04,25.08,743.26,2
8080259,54.85,-6.77,17.54,-0.18,-3.66,-12.91,13.420,0.77,2.97,9.28,,,,0,,,,,,,445,,,,2017-08-05T23:16:57Z,,,,0,,,,35.487229,-85.95816,,,,,,0,,,,0,1290999,0,61,,40.85,92685.07,25.08,745.58,2
8080286,58.74,-7.59,17.04,-0.31,-3.61,-12.89,13.390,0.92,2.91,9.28,,,,0,,,,,,,469,,,,2017-08-05T23:16:57Z,,,,0,,,,35.487229,-85.95816,,,,,,0,,,,0,1290999,0,61,,40.85,92647.75,25.07,748.91,2
8080311,62.54,-8.36,16.5,-0.45,-3.57,-12.9,13.392,1.05,2.85,9.29,,,,0,,,,,,,496,,,,2017-08-05T23:16:57Z,,,,0,,,,35.487229,-85.95816,,,,,,0,,,,0,1290999,0,61,,40.85,92617.18,25.07,751.64,2
8080340,66.5,-9.12,15.89,-0.58,-3.47,-12.89,13.361,1.18,2.77,9.3,,,,0,,,,,,,525,,,,2017-08-05T23:16:57Z,,,,0,,,,35.487229,-85.95816,,,,,,0,,,,0,1290999,0,61,,40.85,92576.02,25,755.32,2
8080367,70.31,-9.81,15.26,-0.72,-3.37,-12.88,13.333,1.3,2.69,9.3,,,,0,,,,,,,549,,,,2017-08-05T23:16:57Z,,,,0,,,,35.487229,-85.95816,,,,,,0,,,,0,1290999,0,61,,40.85,92542.3,25,758.34,2
8080396,74.29,-10.49,14.56,-0.84,-3.27,-12.88,13.315,1.43,2.59,9.31,,,,0,,,,,,,578,,,,2017-08-05T23:16:57Z,,,,0,,,,35.487229,-85.95816,,,,,,0,,,,0,1290999,0,61,,40.85,92514.7,25,760.81,2
8080420,77.9,-11.06,13.88,-0.96,-3.18,-12.86,13.282,1.54,2.49,9.32,,,,0,,,,,,,602,,,,2017-08-05T23:16:57Z,,,,0,,,,35.487229,-85.95816,,,,,,0,,,,0,1290999,0,61,,40.85,92478.48,24.96,764.05,2
8080448,81.74,-11.61,13.12,-1.1,-3.06,-12.86,13.265,1.65,2.38,9.33,,,,0,,,,,,,633,,,,2017-08-05T23:16:57Z,,,,0,,,,35.487229,-85.95816,,,,,,0,,,,0,1290999,0,61,,40.85,92448.82,24.96,766.71,2
8080477,85.73,-12.14,12.3,-1.21,-2.92,-12.84,13.223,1.75,2.27,9.34,,,,0,,,,,,,659,,,,2017-08-05T23:16:57Z,,,,0,,,,35.487229,-85.95816,,,,,,0,,,,0,1290999,0,61,,40.85,92424.53,24.96,768.88,2
8080505,89.83,-12.62,11.42,-1.3,-2.84,-12.82,13.195,1.84,2.14,9.35,,,,0,,,,,,,688,,,,2017-08-05T23:16:57Z,,,,0,,,,35.487229,-85.95816,,,,,,0,,,,0,1290999,0,61,,40.85,92389.2,24.89,772.05,2
8080530,93.52,-12.99,10.6,-1.38,-2.74,-12.8,13.163,1.92,2.02,9.36,,,,0,,,,,,,712,,,,2017-08-05T23:16:57Z,,,,0,,,,35.487229,-85.95816,,,,,,0,,,,0,1290999,0,61,,40.85,92360.27,24.89,774.65,2
8080558,97.41,-13.33,9.72,-1.45,-2.59,-12.79,13.130,2,1.89,9.37,,,,0,,,,,,,744,,,,2017-08-05T23:16:57Z,,,,0,,,,35.487229,-85.95816,,,,,,0,,,,0,1290999,0,61,,40.85,92321.27,24.86,778.15,2
8080585,101.43,-13.63,8.78,-1.51,-2.45,-12.78,13.100,2.07,1.75,9.39,,,,0,,,,,,,768,,,,2017-08-05T23:16:57Z,,,,0,,,,35.487229,-85.95816,,,,,,0,,,,0,1290999,0,61,,40.85,92289.32,24.86,781.02,2
8080606,105.06,-13.84,7.9,-1.59,-2.34,-12.77,13.080,2.12,1.61,9.4,,,,0,,,,,,,789,,,,2017-08-05T23:16:57Z,,,,0,,,,35.487229,-85.95816,,,,,,0,,,,0,1290999,0,61,,40.85,92263.16,24.86,783.36,2
8080631,108.43,-13.99,7.08,-1.65,-2.23,-12.75,13.048,2.17,1.48,9.41,,,,0,,,,,,,813,,,,2017-08-05T23:16:57Z,,,,0,,,,35.487229,-85.95816,,,,,,0,,,,0,1290999,0,61,,40.85,92226.55,24.78,786.65,2
8080652,111.87,-14.1,6.22,-1.72,-2.08,-12.77,13.052,2.21,1.34,9.42,,,,0,,,,,,,836,,,,2017-08-05T23:16:57Z,,,,0,,,,35.487229,-85.95816,,,,,,0,,,,0,1290999,0,61,,40.85,92196.57,24.78,789.34,2
8080678,115.32,-14.16,5.35,-1.75,-1.96,-12.75,13.018,2.24,1.21,9.43,,,,0,,,,,,,860,,,,2017-08-05T23:16:57Z,,,,0,,,,35.487229,-85.95816,,,,,,0,,,,0,1290999,0,61,,40.85,92172.02,24.78,791.55,2
8080698,118.56,-14.17,4.53,-1.78,-1.85,-12.77,13.026,2.27,1.07,9.45,,,,0,,,,,,,884,,,,2017-08-05T23:16:57Z,,,,0,,,,35.487229,-85.95816,,,,,,0,,,,0,1291011,0,61,,40.85,92136.79,24.72,794.72,2
8080728,122.1,-14.12,3.62,-1.81,-1.72,-12.75,12.992,2.28,0.93,9.46,,,,0,,,,,,,910,,,,2017-08-05T23:16:58Z,,,,0,,,,35.487229,-85.95816,,,,,,0,,,,0,1291039,0,61,,40.85,92107.95,24.72,797.31,2
8080749,125.4,-14.03,2.78,-1.82,-1.57,-12.75,12.975,2.29,0.8,9.47,,,,0,,,,,,,934,,,,2017-08-05T23:16:58Z,,,,0,,,,35.487229,-85.95816,,,,,,0,,,,0,1291059,0,61,,40.85,92084.31,24.72,799.44,2
8080778,128.97,-13.87,1.87,-1.83,-1.42,-12.74,12.949,2.28,0.65,9.48,,,,0,,,,,,,960,,,,2017-08-05T23:16:58Z,,,,0,,,,35.487229,-85.95816,,,,,,0,,,,0,1291087,0,61,,40.84,92051.04,24.71,802.43,2
8080807,132.72,-13.64,0.92,-1.82,-1.28,-12.74,12.933,2.27,0.51,9.49,,,,0,,,,,,,991,,,,2017-08-05T23:16:58Z,,,,0,,,,35.487229,-85.95816,,,,,,0,,,,0,1291115,0,61,,40.84,92023.79,24.71,804.88,2
